[
  {
    "UID": 40506,
    "Country": "United States of America",
    "Longitude": -149.762097,
    "Latlongid": 982,
    "Name1": "Anchorage",
    "Latitude": 61.1919,
    "ES00POP": 264379,
    "Urborrur": "U"
  },
  {
    "UID": 40508,
    "Country": "United States of America",
    "Longitude": -149.762097,
    "Latlongid": 985,
    "Name1": "Anchorage muni",
    "Latitude": 61.1919,
    "ES00POP": 260283,
    "Urborrur": "U"
  },
  {
    "UID": 27863,
    "Country": "United Kingdom of Great Britain and Northern Irel*",
    "Longitude": -3.2,
    "Latlongid": 191,
    "Name1": "Edinburgh",
    "Latitude": 55.95,
    "ES00POP": 427042,
    "Urborrur": "U"
  },
  {
    "UID": 27853,
    "Country": "United Kingdom of Great Britain and Northern Irel*",
    "Longitude": -2.9666667,
    "Latlongid": 177,
    "Name1": "Dundee",
    "Latitude": 56.5,
    "ES00POP": 154985,
    "Urborrur": "U"
  },
  {
    "UID": 27715,
    "Country": "United Kingdom of Great Britain and Northern Irel*",
    "Longitude": -2.1,
    "Latlongid": 3,
    "Name1": "Aberdeen",
    "Latitude": 57.1333333,
    "ES00POP": 184521,
    "Urborrur": "U"
  },
  {
    "UID": 31116,
    "Country": "Iceland",
    "Longitude": -21.92,
    "Latlongid": 220,
    "Name1": "Reykjav\u00edk",
    "Latitude": 64.14,
    "ES00POP": 110978,
    "Urborrur": "U"
  },
  {
    "UID": 27839,
    "Country": "United Kingdom of Great Britain and Northern Irel*",
    "Longitude": -1.5666667,
    "Latlongid": 158,
    "Name1": "Darlington",
    "Latitude": 54.5333333,
    "ES00POP": 90003,
    "Urborrur": "U"
  },
  {
    "UID": 27990,
    "Country": "United Kingdom of Great Britain and Northern Irel*",
    "Longitude": -1.1627778,
    "Latlongid": 349,
    "Name1": "Middlesbrough",
    "Latitude": 54.5727778,
    "ES00POP": 141811,
    "Urborrur": "U"
  },
  {
    "UID": 27751,
    "Country": "United Kingdom of Great Britain and Northern Irel*",
    "Longitude": -5.9333333,
    "Latlongid": 49,
    "Name1": "Belfast",
    "Latitude": 54.5833333,
    "ES00POP": 264761,
    "Urborrur": "U"
  },
  {
    "UID": 28091,
    "Country": "United Kingdom of Great Britain and Northern Irel*",
    "Longitude": -1.4166667,
    "Latlongid": 478,
    "Name1": "Stockton-on-Tee",
    "Latitude": 54.5833333,
    "ES00POP": 86693,
    "Urborrur": "U"
  },
  {
    "UID": 27738,
    "Country": "United Kingdom of Great Britain and Northern Irel*",
    "Longitude": -5.7,
    "Latlongid": 31,
    "Name1": "Bangor",
    "Latitude": 54.65,
    "ES00POP": 54393,
    "Urborrur": "U"
  },
  {
    "UID": 27904,
    "Country": "United Kingdom of Great Britain and Northern Irel*",
    "Longitude": -1.2125,
    "Latlongid": 243,
    "Name1": "Hartlepool",
    "Latitude": 54.6861111,
    "ES00POP": 90566,
    "Urborrur": "U"
  },
  {
    "UID": 27801,
    "Country": "United Kingdom of Great Britain and Northern Irel*",
    "Longitude": -2.9333333,
    "Latlongid": 112,
    "Name1": "Carlisle",
    "Latitude": 54.8833333,
    "ES00POP": 75141,
    "Urborrur": "U"
  },
  {
    "UID": 28126,
    "Country": "United Kingdom of Great Britain and Northern Irel*",
    "Longitude": -1.5166667,
    "Latlongid": 519,
    "Name1": "Washington",
    "Latitude": 54.9,
    "ES00POP": 58968,
    "Urborrur": "U"
  },
  {
    "UID": 28098,
    "Country": "United Kingdom of Great Britain and Northern Irel*",
    "Longitude": -1.3833333,
    "Latlongid": 487,
    "Name1": "Sunderland",
    "Latitude": 54.9119444,
    "ES00POP": 178163,
    "Urborrur": "U"
  },
  {
    "UID": 27880,
    "Country": "United Kingdom of Great Britain and Northern Irel*",
    "Longitude": -1.6175,
    "Latlongid": 212,
    "Name1": "Gateshead",
    "Latitude": 54.945,
    "ES00POP": 86261,
    "Urborrur": "U"
  },
  {
    "UID": 28081,
    "Country": "United Kingdom of Great Britain and Northern Irel*",
    "Longitude": -1.4213889,
    "Latlongid": 466,
    "Name1": "South Shields",
    "Latitude": 54.9877778,
    "ES00POP": 86826,
    "Urborrur": "U"
  },
  {
    "UID": 28001,
    "Country": "United Kingdom of Great Britain and Northern Irel*",
    "Longitude": -1.6194444,
    "Latlongid": 364,
    "Name1": "Newcastle upon",
    "Latitude": 54.9880556,
    "ES00POP": 189105,
    "Urborrur": "U"
  },
  {
    "UID": 27972,
    "Country": "United Kingdom of Great Britain and Northern Irel*",
    "Longitude": -7.3333333,
    "Latlongid": 328,
    "Name1": "Londonderry",
    "Latitude": 55.0,
    "ES00POP": 75032,
    "Urborrur": "U"
  },
  {
    "UID": 27859,
    "Country": "United Kingdom of Great Britain and Northern Irel*",
    "Longitude": -4.1666667,
    "Latlongid": 186,
    "Name1": "East Kilbride",
    "Latitude": 55.7666667,
    "ES00POP": 73468,
    "Urborrur": "U"
  },
  {
    "UID": 27882,
    "Country": "United Kingdom of Great Britain and Northern Irel*",
    "Longitude": -4.25,
    "Latlongid": 216,
    "Name1": "Glasgow",
    "Latitude": 55.8333333,
    "ES00POP": 632331,
    "Urborrur": "U"
  },
  {
    "UID": 28023,
    "Country": "United Kingdom of Great Britain and Northern Irel*",
    "Longitude": -4.4333333,
    "Latlongid": 394,
    "Name1": "Paisley",
    "Latitude": 55.8333333,
    "ES00POP": 74145,
    "Urborrur": "U"
  },
  {
    "UID": 27742,
    "Country": "United Kingdom of Great Britain and Northern Irel*",
    "Longitude": -3.2333333,
    "Latlongid": 35,
    "Name1": "Barrow-in-Furne",
    "Latitude": 54.1166667,
    "ES00POP": 50772,
    "Urborrur": "U"
  },
  {
    "UID": 34034,
    "Country": "Norway",
    "Longitude": 10.4,
    "Latlongid": 895,
    "Name1": "Trondheim",
    "Latitude": 63.44,
    "ES00POP": 140751,
    "Urborrur": "U"
  },
  {
    "UID": 27299,
    "Country": "Finland",
    "Longitude": 21.77,
    "Latlongid": 396,
    "Name1": "Pori",
    "Latitude": 61.49,
    "ES00POP": 84575,
    "Urborrur": "U"
  },
  {
    "UID": 27320,
    "Country": "Finland",
    "Longitude": 21.61,
    "Latlongid": 546,
    "Name1": "Vaasa",
    "Latitude": 63.1,
    "ES00POP": 61090,
    "Urborrur": "U"
  },
  {
    "UID": 37169,
    "Country": "Sweden",
    "Longitude": 20.25,
    "Latlongid": 3584,
    "Name1": "Ume\u00e5",
    "Latitude": 63.8333333,
    "ES00POP": 70955,
    "Urborrur": "U"
  },
  {
    "UID": 27266,
    "Country": "Finland",
    "Longitude": 26.7,
    "Latlongid": 215,
    "Name1": "Kouvola",
    "Latitude": 60.88,
    "ES00POP": 51587,
    "Urborrur": "U"
  },
  {
    "UID": 27272,
    "Country": "Finland",
    "Longitude": 25.66,
    "Latlongid": 252,
    "Name1": "Lahden",
    "Latitude": 60.99,
    "ES00POP": 110160,
    "Urborrur": "U"
  },
  {
    "UID": 27273,
    "Country": "Finland",
    "Longitude": 28.18,
    "Latlongid": 261,
    "Name1": "Lappeenranta",
    "Latitude": 61.06,
    "ES00POP": 51891,
    "Urborrur": "U"
  },
  {
    "UID": 27314,
    "Country": "Finland",
    "Longitude": 23.75,
    "Latlongid": 506,
    "Name1": "Tampere",
    "Latitude": 61.5,
    "ES00POP": 270753,
    "Urborrur": "U"
  },
  {
    "UID": 27249,
    "Country": "Finland",
    "Longitude": 25.75,
    "Latlongid": 120,
    "Name1": "Jyv\u00e4skyl\u00e4",
    "Latitude": 62.26,
    "ES00POP": 98510,
    "Urborrur": "U"
  },
  {
    "UID": 27247,
    "Country": "Finland",
    "Longitude": 29.78,
    "Latlongid": 107,
    "Name1": "Joensuu",
    "Latitude": 62.61,
    "ES00POP": 51793,
    "Urborrur": "U"
  },
  {
    "UID": 27268,
    "Country": "Finland",
    "Longitude": 27.7,
    "Latlongid": 228,
    "Name1": "Kuopio",
    "Latitude": 62.9,
    "ES00POP": 78259,
    "Urborrur": "U"
  },
  {
    "UID": 27294,
    "Country": "Finland",
    "Longitude": 25.46788,
    "Latlongid": 365,
    "Name1": "Oulu",
    "Latitude": 65.01456,
    "ES00POP": 157605,
    "Urborrur": "U"
  },
  {
    "UID": 36223,
    "Country": "Russian Federation",
    "Longitude": 35.8930556,
    "Latlongid": 1039,
    "Name1": "Tver",
    "Latitude": 56.8619444,
    "ES00POP": 415541,
    "Urborrur": "U"
  },
  {
    "UID": 36282,
    "Country": "Russian Federation",
    "Longitude": 34.54,
    "Latlongid": 1146,
    "Name1": "Vy\u009anij\u00a0Volocok",
    "Latitude": 57.59,
    "ES00POP": 59700,
    "Urborrur": "U"
  },
  {
    "UID": 35703,
    "Country": "Russian Federation",
    "Longitude": 33.9,
    "Latlongid": 128,
    "Name1": "Borovici",
    "Latitude": 58.4,
    "ES00POP": 61400,
    "Urborrur": "U"
  },
  {
    "UID": 36251,
    "Country": "Russian Federation",
    "Longitude": 31.26,
    "Latlongid": 1086,
    "Name1": "Velikij\u00a0Novgoro",
    "Latitude": 58.54,
    "ES00POP": 218975,
    "Urborrur": "U"
  },
  {
    "UID": 36325,
    "Country": "Russian Federation",
    "Longitude": 32.0741500854,
    "Latlongid": 391,
    "Name1": "Kiri\u009ai",
    "Latitude": 59.3643379211,
    "ES00POP": 55800,
    "Urborrur": "U"
  },
  {
    "UID": 36205,
    "Country": "Russian Federation",
    "Longitude": 33.51,
    "Latlongid": 1005,
    "Name1": "Tihvin",
    "Latitude": 59.64,
    "ES00POP": 67700,
    "Urborrur": "U"
  },
  {
    "UID": 36270,
    "Country": "Russian Federation",
    "Longitude": 32.34,
    "Latlongid": 1118,
    "Name1": "Volhov",
    "Latitude": 59.93,
    "ES00POP": 50400,
    "Urborrur": "U"
  },
  {
    "UID": 36078,
    "Country": "Russian Federation",
    "Longitude": 34.333546,
    "Latlongid": 784,
    "Name1": "Petrozavodsk",
    "Latitude": 61.808712,
    "ES00POP": 266933,
    "Urborrur": "U"
  },
  {
    "UID": 35651,
    "Country": "Russian Federation",
    "Longitude": 33.3936111,
    "Latlongid": 34,
    "Name1": "Apatity",
    "Latitude": 67.5675,
    "ES00POP": 69500,
    "Urborrur": "U"
  },
  {
    "UID": 35981,
    "Country": "Russian Federation",
    "Longitude": 32.82,
    "Latlongid": 592,
    "Name1": "Moncegorsk",
    "Latitude": 67.92,
    "ES00POP": 56900,
    "Urborrur": "U"
  },
  {
    "UID": 35989,
    "Country": "Russian Federation",
    "Longitude": 33.0833333,
    "Latlongid": 605,
    "Name1": "Murmansk",
    "Latitude": 68.9666667,
    "ES00POP": 350850,
    "Urborrur": "U"
  },
  {
    "UID": 36152,
    "Country": "Russian Federation",
    "Longitude": 33.4166667,
    "Latlongid": 913,
    "Name1": "Severomorsk",
    "Latitude": 69.0694444,
    "ES00POP": 54600,
    "Urborrur": "U"
  },
  {
    "UID": 36782,
    "Country": "Sweden",
    "Longitude": 17.1666667,
    "Latlongid": 971,
    "Name1": "G\u00e4vle",
    "Latitude": 60.6666667,
    "ES00POP": 67856,
    "Urborrur": "U"
  },
  {
    "UID": 37095,
    "Country": "Sweden",
    "Longitude": 17.6166667,
    "Latlongid": 3066,
    "Name1": "S\u00f6dert\u00e4lje",
    "Latitude": 59.2,
    "ES00POP": 59342,
    "Urborrur": "U"
  },
  {
    "UID": 37009,
    "Country": "Sweden",
    "Longitude": 15.2166667,
    "Latlongid": 2455,
    "Name1": "\u00d6rebro",
    "Latitude": 59.2833333,
    "ES00POP": 95354,
    "Urborrur": "U"
  },
  {
    "UID": 37111,
    "Country": "Sweden",
    "Longitude": 18.05,
    "Latlongid": 3186,
    "Name1": "Stockholm",
    "Latitude": 59.3333333,
    "ES00POP": 1212196,
    "Urborrur": "U"
  },
  {
    "UID": 36756,
    "Country": "Sweden",
    "Longitude": 16.5,
    "Latlongid": 741,
    "Name1": "Eskilstuna",
    "Latitude": 59.3666667,
    "ES00POP": 57867,
    "Urborrur": "U"
  },
  {
    "UID": 37189,
    "Country": "Sweden",
    "Longitude": 16.55,
    "Latlongid": 3719,
    "Name1": "V\u00e4ster\u00e5s",
    "Latitude": 59.6166667,
    "ES00POP": 102548,
    "Urborrur": "U"
  },
  {
    "UID": 37139,
    "Country": "Sweden",
    "Longitude": 18.5167,
    "Latlongid": 3345,
    "Name1": "T\u00e4by",
    "Latitude": 59.7167,
    "ES00POP": 57834,
    "Urborrur": "U"
  },
  {
    "UID": 37171,
    "Country": "Sweden",
    "Longitude": 17.64,
    "Latlongid": 3602,
    "Name1": "Uppsala",
    "Latitude": 59.86,
    "ES00POP": 124036,
    "Urborrur": "U"
  },
  {
    "UID": 36874,
    "Country": "Sweden",
    "Longitude": 13.5,
    "Latlongid": 1635,
    "Name1": "Karlstad",
    "Latitude": 59.3666667,
    "ES00POP": 56480,
    "Urborrur": "U"
  },
  {
    "UID": 33865,
    "Country": "Norway",
    "Longitude": 10.75,
    "Latlongid": 624,
    "Name1": "Oslo",
    "Latitude": 59.91,
    "ES00POP": 766518,
    "Urborrur": "U"
  },
  {
    "UID": 27223,
    "Country": "Estonia",
    "Longitude": 26.7361111,
    "Latlongid": 73,
    "Name1": "Tartu",
    "Latitude": 58.3661111,
    "ES00POP": 101169,
    "Urborrur": "U"
  },
  {
    "UID": 35858,
    "Country": "Russian Federation",
    "Longitude": 28.6,
    "Latlongid": 389,
    "Name1": "Kingisepp",
    "Latitude": 59.3666667,
    "ES00POP": 52200,
    "Urborrur": "U"
  },
  {
    "UID": 27205,
    "Country": "Estonia",
    "Longitude": 28.1902778,
    "Latlongid": 37,
    "Name1": "Narva",
    "Latitude": 59.3772222,
    "ES00POP": 68680,
    "Urborrur": "U"
  },
  {
    "UID": 27220,
    "Country": "Estonia",
    "Longitude": 24.7280556,
    "Latlongid": 67,
    "Name1": "Tallinn",
    "Latitude": 59.4338889,
    "ES00POP": 400378,
    "Urborrur": "U"
  },
  {
    "UID": 35760,
    "Country": "Russian Federation",
    "Longitude": 30.1,
    "Latlongid": 228,
    "Name1": "Gatcina",
    "Latitude": 59.56,
    "ES00POP": 81800,
    "Urborrur": "U"
  },
  {
    "UID": 35879,
    "Country": "Russian Federation",
    "Longitude": 30.6,
    "Latlongid": 425,
    "Name1": "Kolpino",
    "Latitude": 59.75,
    "ES00POP": 140700,
    "Urborrur": "U"
  },
  {
    "UID": 36287,
    "Country": "Russian Federation",
    "Longitude": 30.31,
    "Latlongid": 1152,
    "Name1": "Zarskoje\u00a0Selo",
    "Latitude": 59.76,
    "ES00POP": 101038,
    "Urborrur": "U"
  },
  {
    "UID": 36125,
    "Country": "Russian Federation",
    "Longitude": 30.2641667,
    "Latlongid": 868,
    "Name1": "Sankt\u00a0Peterburg",
    "Latitude": 59.8944444,
    "ES00POP": 4722279,
    "Urborrur": "U"
  },
  {
    "UID": 36171,
    "Country": "Russian Federation",
    "Longitude": 29.1,
    "Latlongid": 945,
    "Name1": "Sosnovyj\u00a0Bor",
    "Latitude": 59.9,
    "ES00POP": 62200,
    "Urborrur": "U"
  },
  {
    "UID": 27238,
    "Country": "Finland",
    "Longitude": 24.94,
    "Latlongid": 53,
    "Name1": "Helsinki",
    "Latitude": 60.17,
    "ES00POP": 1027305,
    "Urborrur": "U"
  },
  {
    "UID": 27232,
    "Country": "Finland",
    "Longitude": 24.66,
    "Latlongid": 16,
    "Name1": "Espoo",
    "Latitude": 60.21,
    "ES00POP": 213271,
    "Urborrur": "U"
  },
  {
    "UID": 27324,
    "Country": "Finland",
    "Longitude": 25.04,
    "Latlongid": 572,
    "Name1": "Vantaa",
    "Latitude": 60.29,
    "ES00POP": 178471,
    "Urborrur": "U"
  },
  {
    "UID": 27265,
    "Country": "Finland",
    "Longitude": 26.93,
    "Latlongid": 206,
    "Name1": "Kotka",
    "Latitude": 60.47,
    "ES00POP": 53094,
    "Urborrur": "U"
  },
  {
    "UID": 36280,
    "Country": "Russian Federation",
    "Longitude": 28.75,
    "Latlongid": 1142,
    "Name1": "Vyborg",
    "Latitude": 60.7,
    "ES00POP": 79800,
    "Urborrur": "U"
  },
  {
    "UID": 33635,
    "Country": "Norway",
    "Longitude": 10.94,
    "Latlongid": 222,
    "Name1": "Fredrikstad",
    "Latitude": 59.24,
    "ES00POP": 94203,
    "Urborrur": "U"
  },
  {
    "UID": 32554,
    "Country": "Lithuania",
    "Longitude": 21.117,
    "Latlongid": 49,
    "Name1": "Klaipeda",
    "Latitude": 55.717,
    "ES00POP": 193766,
    "Urborrur": "U"
  },
  {
    "UID": 32589,
    "Country": "Lithuania",
    "Longitude": 23.32,
    "Latlongid": 102,
    "Name1": "Siauliai",
    "Latitude": 55.93,
    "ES00POP": 134825,
    "Urborrur": "U"
  },
  {
    "UID": 33084,
    "Country": "Latvia",
    "Longitude": 21.0166667,
    "Latlongid": 138,
    "Name1": "Liepaja",
    "Latitude": 56.5166667,
    "ES00POP": 89448,
    "Urborrur": "U"
  },
  {
    "UID": 33076,
    "Country": "Latvia",
    "Longitude": 23.5666667,
    "Latlongid": 122,
    "Name1": "Jurmala",
    "Latitude": 56.9666667,
    "ES00POP": 55718,
    "Urborrur": "U"
  },
  {
    "UID": 27316,
    "Country": "Finland",
    "Longitude": 22.25,
    "Latlongid": 522,
    "Name1": "Turku",
    "Latitude": 60.45,
    "ES00POP": 239018,
    "Urborrur": "U"
  },
  {
    "UID": 36933,
    "Country": "Sweden",
    "Longitude": 15.6166667,
    "Latlongid": 1966,
    "Name1": "Link\u00f6ping",
    "Latitude": 58.4166667,
    "ES00POP": 94248,
    "Urborrur": "U"
  },
  {
    "UID": 36991,
    "Country": "Sweden",
    "Longitude": 16.1833333,
    "Latlongid": 2347,
    "Name1": "Norrk\u00f6ping",
    "Latitude": 58.6,
    "ES00POP": 82744,
    "Urborrur": "U"
  },
  {
    "UID": 26027,
    "Country": "Denmark",
    "Longitude": 9.9201,
    "Latlongid": 8,
    "Name1": "Aalborg",
    "Latitude": 57.046436,
    "ES00POP": 119617,
    "Urborrur": "U"
  },
  {
    "UID": 33753,
    "Country": "Norway",
    "Longitude": 7.99,
    "Latlongid": 431,
    "Name1": "Kristiansand",
    "Latitude": 58.15,
    "ES00POP": 61083,
    "Urborrur": "U"
  },
  {
    "UID": 36721,
    "Country": "Sweden",
    "Longitude": 12.9166667,
    "Latlongid": 471,
    "Name1": "Bor\u00e5s",
    "Latitude": 57.7166667,
    "ES00POP": 61929,
    "Urborrur": "U"
  },
  {
    "UID": 36792,
    "Country": "Sweden",
    "Longitude": 11.9666667,
    "Latlongid": 1029,
    "Name1": "G\u00f6teborg",
    "Latitude": 57.719994,
    "ES00POP": 495849,
    "Urborrur": "U"
  },
  {
    "UID": 36860,
    "Country": "Sweden",
    "Longitude": 14.1833333,
    "Latlongid": 1551,
    "Name1": "J\u00f6nk\u00f6ping",
    "Latitude": 57.7833333,
    "ES00POP": 81372,
    "Urborrur": "U"
  },
  {
    "UID": 33066,
    "Country": "Latvia",
    "Longitude": 26.5333333,
    "Latlongid": 34,
    "Name1": "Daugavpils",
    "Latitude": 55.8833333,
    "ES00POP": 115265,
    "Urborrur": "U"
  },
  {
    "UID": 36250,
    "Country": "Russian Federation",
    "Longitude": 30.52,
    "Latlongid": 1083,
    "Name1": "Velikije Luki",
    "Latitude": 56.34,
    "ES00POP": 106337,
    "Urborrur": "U"
  },
  {
    "UID": 33075,
    "Country": "Latvia",
    "Longitude": 23.7,
    "Latlongid": 120,
    "Name1": "Jelgava",
    "Latitude": 56.65,
    "ES00POP": 63652,
    "Urborrur": "U"
  },
  {
    "UID": 33100,
    "Country": "Latvia",
    "Longitude": 24.1,
    "Latlongid": 170,
    "Name1": "Riga",
    "Latitude": 56.95,
    "ES00POP": 764329,
    "Urborrur": "U"
  },
  {
    "UID": 36093,
    "Country": "Russian Federation",
    "Longitude": 28.3333333,
    "Latlongid": 809,
    "Name1": "Pskov",
    "Latitude": 57.8333333,
    "ES00POP": 202899,
    "Urborrur": "U"
  },
  {
    "UID": 36824,
    "Country": "Sweden",
    "Longitude": 12.7,
    "Latlongid": 1306,
    "Name1": "Helsingborg",
    "Latitude": 56.05,
    "ES00POP": 87914,
    "Urborrur": "U"
  },
  {
    "UID": 26038,
    "Country": "Denmark",
    "Longitude": 10.212,
    "Latlongid": 42,
    "Name1": "\u00c5rhus",
    "Latitude": 56.1581,
    "ES00POP": 217260,
    "Urborrur": "U"
  },
  {
    "UID": 36811,
    "Country": "Sweden",
    "Longitude": 12.8555556,
    "Latlongid": 1206,
    "Name1": "Halmstad",
    "Latitude": 56.6713889,
    "ES00POP": 53487,
    "Urborrur": "U"
  },
  {
    "UID": 26299,
    "Country": "Denmark",
    "Longitude": 10.05,
    "Latlongid": 614,
    "Name1": "Randers",
    "Latitude": 56.4666667,
    "ES00POP": 55761,
    "Urborrur": "U"
  },
  {
    "UID": 36948,
    "Country": "Sweden",
    "Longitude": 13.1833333,
    "Latlongid": 2056,
    "Name1": "Lund",
    "Latitude": 55.7,
    "ES00POP": 73840,
    "Urborrur": "U"
  },
  {
    "UID": 26219,
    "Country": "Denmark",
    "Longitude": 9.4833333,
    "Latlongid": 430,
    "Name1": "Kolding",
    "Latitude": 55.5166667,
    "ES00POP": 53447,
    "Urborrur": "U"
  },
  {
    "UID": 36263,
    "Country": "Russian Federation",
    "Longitude": 34.29,
    "Latlongid": 1101,
    "Name1": "Vjazma",
    "Latitude": 55.22,
    "ES00POP": 59200,
    "Urborrur": "U"
  },
  {
    "UID": 36115,
    "Country": "Russian Federation",
    "Longitude": 34.33,
    "Latlongid": 846,
    "Name1": "R\u009eev",
    "Latitude": 56.26,
    "ES00POP": 69000,
    "Urborrur": "U"
  },
  {
    "UID": 34274,
    "Country": "Poland",
    "Longitude": 18.78,
    "Latlongid": 388,
    "Name1": "Tczew",
    "Latitude": 54.1,
    "ES00POP": 59858,
    "Urborrur": "U"
  },
  {
    "UID": 34158,
    "Country": "Poland",
    "Longitude": 16.18,
    "Latlongid": 156,
    "Name1": "Koszalin",
    "Latitude": 54.19,
    "ES00POP": 109123,
    "Urborrur": "U"
  },
  {
    "UID": 34118,
    "Country": "Poland",
    "Longitude": 18.64,
    "Latlongid": 76,
    "Name1": "Gdansk",
    "Latitude": 54.36,
    "ES00POP": 461403,
    "Urborrur": "U"
  },
  {
    "UID": 34248,
    "Country": "Poland",
    "Longitude": 17.02,
    "Latlongid": 336,
    "Name1": "Slupsk",
    "Latitude": 54.47,
    "ES00POP": 100358,
    "Urborrur": "U"
  },
  {
    "UID": 34119,
    "Country": "Poland",
    "Longitude": 18.53,
    "Latlongid": 78,
    "Name1": "Gdynia",
    "Latitude": 54.52,
    "ES00POP": 252797,
    "Urborrur": "U"
  },
  {
    "UID": 37193,
    "Country": "Sweden",
    "Longitude": 14.8166667,
    "Latlongid": 3771,
    "Name1": "V\u00e4xj\u00f6",
    "Latitude": 56.8833333,
    "ES00POP": 51790,
    "Urborrur": "U"
  },
  {
    "UID": 36955,
    "Country": "Sweden",
    "Longitude": 13.0,
    "Latlongid": 2091,
    "Name1": "Malm\u00f6",
    "Latitude": 55.6,
    "ES00POP": 248520,
    "Urborrur": "U"
  },
  {
    "UID": 26217,
    "Country": "Denmark",
    "Longitude": 12.57,
    "Latlongid": 426,
    "Name1": "K\u00f8benhavn",
    "Latitude": 55.68,
    "ES00POP": 1075851,
    "Urborrur": "U"
  },
  {
    "UID": 26284,
    "Country": "Denmark",
    "Longitude": 10.3833333,
    "Latlongid": 572,
    "Name1": "Odense",
    "Latitude": 55.4,
    "ES00POP": 145062,
    "Urborrur": "U"
  },
  {
    "UID": 25585,
    "Country": "Germany",
    "Longitude": 9.98,
    "Latlongid": 1893,
    "Name1": "Neum\u00fcnster",
    "Latitude": 54.07,
    "ES00POP": 80432,
    "Urborrur": "U"
  },
  {
    "UID": 25396,
    "Country": "Germany",
    "Longitude": 10.12,
    "Latlongid": 1399,
    "Name1": "Kiel",
    "Latitude": 54.32,
    "ES00POP": 236751,
    "Urborrur": "U"
  },
  {
    "UID": 25173,
    "Country": "Germany",
    "Longitude": 9.42,
    "Latlongid": 781,
    "Name1": "Flensburg",
    "Latitude": 54.79,
    "ES00POP": 85402,
    "Urborrur": "U"
  },
  {
    "UID": 26091,
    "Country": "Denmark",
    "Longitude": 8.45,
    "Latlongid": 164,
    "Name1": "Esbjerg",
    "Latitude": 55.4666667,
    "ES00POP": 73341,
    "Urborrur": "U"
  },
  {
    "UID": 24421,
    "Country": "Belarus",
    "Longitude": 28.3325,
    "Latlongid": 92,
    "Name1": "Zhodino",
    "Latitude": 54.0983333,
    "ES00POP": 59416,
    "Urborrur": "U"
  },
  {
    "UID": 24391,
    "Country": "Belarus",
    "Longitude": 28.4913889,
    "Latlongid": 13.0,
    "Name1": "Borisov",
    "Latitude": 54.2255556,
    "ES00POP": 151931,
    "Urborrur": "U"
  },
  {
    "UID": 24403,
    "Country": "Belarus",
    "Longitude": 26.8497222,
    "Latlongid": 47,
    "Name1": "Molodechno",
    "Latitude": 54.3166667,
    "ES00POP": 97729,
    "Urborrur": "U"
  },
  {
    "UID": 32524,
    "Country": "Lithuania",
    "Longitude": 24.05,
    "Latlongid": 3,
    "Name1": "Alytus",
    "Latitude": 54.39,
    "ES00POP": 71617,
    "Urborrur": "U"
  },
  {
    "UID": 24407,
    "Country": "Belarus",
    "Longitude": 30.41,
    "Latlongid": 58,
    "Name1": "Or\u009aa",
    "Latitude": 54.51,
    "ES00POP": 136100,
    "Urborrur": "U"
  },
  {
    "UID": 32614,
    "Country": "Lithuania",
    "Longitude": 25.317,
    "Latlongid": 139,
    "Name1": "Vilnius",
    "Latitude": 54.667,
    "ES00POP": 545078,
    "Urborrur": "U"
  },
  {
    "UID": 32549,
    "Country": "Lithuania",
    "Longitude": 23.917,
    "Latlongid": 41,
    "Name1": "Kaunas",
    "Latitude": 54.867,
    "ES00POP": 382060,
    "Urborrur": "U"
  },
  {
    "UID": 24419,
    "Country": "Belarus",
    "Longitude": 30.1944444,
    "Latlongid": 88,
    "Name1": "Vitebsk",
    "Latitude": 55.1925,
    "ES00POP": 347308,
    "Urborrur": "U"
  },
  {
    "UID": 24410,
    "Country": "Belarus",
    "Longitude": 28.8041667,
    "Latlongid": 65,
    "Name1": "Polotsk",
    "Latitude": 55.4855556,
    "ES00POP": 82518,
    "Urborrur": "U"
  },
  {
    "UID": 24406,
    "Country": "Belarus",
    "Longitude": 28.65,
    "Latlongid": 55,
    "Name1": "Novopolotsk",
    "Latitude": 55.5333333,
    "ES00POP": 107396,
    "Urborrur": "U"
  },
  {
    "UID": 32574,
    "Country": "Lithuania",
    "Longitude": 24.35,
    "Latlongid": 80,
    "Name1": "Panevezys",
    "Latitude": 55.7333333,
    "ES00POP": 120298,
    "Urborrur": "U"
  },
  {
    "UID": 35834,
    "Country": "Russian Federation",
    "Longitude": 36.2705556,
    "Latlongid": 352,
    "Name1": "Kaluga",
    "Latitude": 54.5358333,
    "ES00POP": 331438,
    "Urborrur": "U"
  },
  {
    "UID": 36160,
    "Country": "Russian Federation",
    "Longitude": 32.04,
    "Latlongid": 929,
    "Name1": "Smolensk",
    "Latitude": 54.7816667,
    "ES00POP": 327838,
    "Urborrur": "U"
  },
  {
    "UID": 35806,
    "Country": "Russian Federation",
    "Longitude": 32.68,
    "Latlongid": 303,
    "Name1": "Jarcevo",
    "Latitude": 55.07,
    "ES00POP": 56300,
    "Urborrur": "U"
  },
  {
    "UID": 36046,
    "Country": "Russian Federation",
    "Longitude": 36.6102778,
    "Latlongid": 719,
    "Name1": "Obninsk",
    "Latitude": 55.0969444,
    "ES00POP": 104886,
    "Urborrur": "U"
  },
  {
    "UID": 36117,
    "Country": "Russian Federation",
    "Longitude": 33.23,
    "Latlongid": 850,
    "Name1": "Safonovo",
    "Latitude": 55.11,
    "ES00POP": 52600,
    "Urborrur": "U"
  },
  {
    "UID": 34259,
    "Country": "Poland",
    "Longitude": 22.94,
    "Latlongid": 358,
    "Name1": "Suwalki",
    "Latitude": 54.11,
    "ES00POP": 67891,
    "Urborrur": "U"
  },
  {
    "UID": 34116,
    "Country": "Poland",
    "Longitude": 19.4,
    "Latlongid": 72,
    "Name1": "Elblag",
    "Latitude": 54.18,
    "ES00POP": 127972,
    "Urborrur": "U"
  },
  {
    "UID": 35830,
    "Country": "Russian Federation",
    "Longitude": 20.5,
    "Latlongid": 346,
    "Name1": "Kaliningrad",
    "Latitude": 54.71,
    "ES00POP": 425657,
    "Urborrur": "U"
  },
  {
    "UID": 25247,
    "Country": "Germany",
    "Longitude": 13.39,
    "Latlongid": 983,
    "Name1": "Greifswald",
    "Latitude": 54.09,
    "ES00POP": 55845,
    "Urborrur": "U"
  },
  {
    "UID": 25741,
    "Country": "Germany",
    "Longitude": 12.1,
    "Latlongid": 2311,
    "Name1": "Rostock",
    "Latitude": 54.09,
    "ES00POP": 208065,
    "Urborrur": "U"
  },
  {
    "UID": 25854,
    "Country": "Germany",
    "Longitude": 13.1,
    "Latlongid": 2612,
    "Name1": "Stralsund",
    "Latitude": 54.3,
    "ES00POP": 61909,
    "Urborrur": "U"
  },
  {
    "UID": 33543,
    "Country": "Norway",
    "Longitude": 5.34,
    "Latlongid": 76,
    "Name1": "Bergen",
    "Latitude": 60.3798,
    "ES00POP": 205538,
    "Urborrur": "U"
  },
  {
    "UID": 33873,
    "Country": "Norway",
    "Longitude": 9.66,
    "Latlongid": 636,
    "Name1": "Porsgrunn/Skien",
    "Latitude": 59.15,
    "ES00POP": 81950,
    "Urborrur": "U"
  },
  {
    "UID": 33941,
    "Country": "Norway",
    "Longitude": 9.6,
    "Latlongid": 743,
    "Name1": "Skien",
    "Latitude": 59.2,
    "ES00POP": 80421,
    "Urborrur": "U"
  },
  {
    "UID": 33583,
    "Country": "Norway",
    "Longitude": 10.2,
    "Latlongid": 146,
    "Name1": "Drammen",
    "Latitude": 59.75,
    "ES00POP": 82636,
    "Urborrur": "U"
  },
  {
    "UID": 33974,
    "Country": "Norway",
    "Longitude": 5.75,
    "Latlongid": 806,
    "Name1": "Stavanger",
    "Latitude": 58.9666667,
    "ES00POP": 159267,
    "Urborrur": "U"
  },
  {
    "UID": 36016,
    "Country": "Russian Federation",
    "Longitude": 44.0,
    "Latlongid": 660,
    "Name1": "Ni\u009enij\u00a0Novgorod",
    "Latitude": 56.32,
    "ES00POP": 1323318,
    "Urborrur": "U"
  },
  {
    "UID": 35873,
    "Country": "Russian Federation",
    "Longitude": 36.7333333,
    "Latlongid": 414,
    "Name1": "Klin",
    "Latitude": 56.3333333,
    "ES00POP": 89100,
    "Urborrur": "U"
  },
  {
    "UID": 35700,
    "Country": "Russian Federation",
    "Longitude": 44.0855556,
    "Latlongid": 123,
    "Name1": "Bor",
    "Latitude": 56.3475,
    "ES00POP": 63300,
    "Urborrur": "U"
  },
  {
    "UID": 35740,
    "Country": "Russian Federation",
    "Longitude": 37.5166667,
    "Latlongid": 196,
    "Name1": "Dmitrov",
    "Latitude": 56.35,
    "ES00POP": 63800,
    "Urborrur": "U"
  },
  {
    "UID": 35897,
    "Country": "Russian Federation",
    "Longitude": 41.3191667,
    "Latlongid": 453,
    "Name1": "Kovrov",
    "Latitude": 56.3572222,
    "ES00POP": 156269,
    "Urborrur": "U"
  },
  {
    "UID": 35643,
    "Country": "Russian Federation",
    "Longitude": 38.7166667,
    "Latlongid": 19,
    "Name1": "Aleksandrov",
    "Latitude": 56.4,
    "ES00POP": 67600,
    "Urborrur": "U"
  },
  {
    "UID": 35668,
    "Country": "Russian Federation",
    "Longitude": 43.59,
    "Latlongid": 62,
    "Name1": "Balahna",
    "Latitude": 56.49,
    "ES00POP": 62700,
    "Urborrur": "U"
  },
  {
    "UID": 35746,
    "Country": "Russian Federation",
    "Longitude": 37.1666667,
    "Latlongid": 204,
    "Name1": "Dubna",
    "Latitude": 56.7333333,
    "ES00POP": 67800,
    "Urborrur": "U"
  },
  {
    "UID": 36182,
    "Country": "Russian Federation",
    "Longitude": 41.35,
    "Latlongid": 967,
    "Name1": "\u008auja",
    "Latitude": 56.86,
    "ES00POP": 66800,
    "Urborrur": "U"
  },
  {
    "UID": 35855,
    "Country": "Russian Federation",
    "Longitude": 37.35,
    "Latlongid": 385,
    "Name1": "Kimry",
    "Latitude": 56.8666667,
    "ES00POP": 59300,
    "Urborrur": "U"
  },
  {
    "UID": 35797,
    "Country": "Russian Federation",
    "Longitude": 40.9858333,
    "Latlongid": 289,
    "Name1": "Ivanovo",
    "Latitude": 56.9941667,
    "ES00POP": 439372,
    "Urborrur": "U"
  },
  {
    "UID": 35857,
    "Country": "Russian Federation",
    "Longitude": 42.13,
    "Latlongid": 388,
    "Name1": "Kine\u009ama",
    "Latitude": 57.45,
    "ES00POP": 99100,
    "Urborrur": "U"
  },
  {
    "UID": 35807,
    "Country": "Russian Federation",
    "Longitude": 39.8666667,
    "Latlongid": 306,
    "Name1": "Jaroslavl",
    "Latitude": 57.6166667,
    "ES00POP": 616205,
    "Urborrur": "U"
  },
  {
    "UID": 35890,
    "Country": "Russian Federation",
    "Longitude": 40.9344444,
    "Latlongid": 443,
    "Name1": "Kostroma",
    "Latitude": 57.7708333,
    "ES00POP": 279184,
    "Urborrur": "U"
  },
  {
    "UID": 36114,
    "Country": "Russian Federation",
    "Longitude": 38.8333333,
    "Latlongid": 844,
    "Name1": "Rybinsk",
    "Latitude": 58.05,
    "ES00POP": 226923,
    "Urborrur": "U"
  },
  {
    "UID": 35722,
    "Country": "Russian Federation",
    "Longitude": 37.91,
    "Latlongid": 164,
    "Name1": "Cerepovec",
    "Latitude": 59.14,
    "ES00POP": 311861,
    "Urborrur": "U"
  },
  {
    "UID": 36271,
    "Country": "Russian Federation",
    "Longitude": 39.9,
    "Latlongid": 1121,
    "Name1": "Vologda",
    "Latitude": 59.2166667,
    "ES00POP": 291271,
    "Urborrur": "U"
  },
  {
    "UID": 36333,
    "Country": "Russian Federation",
    "Longitude": 39.9022140503,
    "Latlongid": 911,
    "Name1": "Severodvinsk",
    "Latitude": 64.4989852905,
    "ES00POP": 208170,
    "Urborrur": "U"
  },
  {
    "UID": 35653,
    "Country": "Russian Federation",
    "Longitude": 40.5333333,
    "Latlongid": 38,
    "Name1": "Archangel",
    "Latitude": 64.56,
    "ES00POP": 360317,
    "Urborrur": "U"
  },
  {
    "UID": 36038,
    "Country": "Russian Federation",
    "Longitude": 60.0833333,
    "Latlongid": 709,
    "Name1": "Novouralsk",
    "Latitude": 57.25,
    "ES00POP": 93700,
    "Urborrur": "U"
  },
  {
    "UID": 35919,
    "Country": "Russian Federation",
    "Longitude": 56.9491667,
    "Latlongid": 488,
    "Name1": "Kungur",
    "Latitude": 57.4327778,
    "ES00POP": 75500,
    "Urborrur": "U"
  },
  {
    "UID": 36017,
    "Country": "Russian Federation",
    "Longitude": 60.02,
    "Latlongid": 663,
    "Name1": "Ni\u009enij\u00a0Tagil",
    "Latitude": 57.93,
    "ES00POP": 395562,
    "Urborrur": "U"
  },
  {
    "UID": 36073,
    "Country": "Russian Federation",
    "Longitude": 56.25,
    "Latlongid": 773,
    "Name1": "Perm",
    "Latitude": 58.0,
    "ES00POP": 1006137,
    "Urborrur": "U"
  },
  {
    "UID": 36331,
    "Country": "Russian Federation",
    "Longitude": 52.6814002991,
    "Latlongid": 235,
    "Name1": "Glazov",
    "Latitude": 58.0509490967,
    "ES00POP": 101371,
    "Urborrur": "U"
  },
  {
    "UID": 36257,
    "Country": "Russian Federation",
    "Longitude": 60.55,
    "Latlongid": 1093,
    "Name1": "Verhnjaja\u00a0Salda",
    "Latitude": 58.06,
    "ES00POP": 52700,
    "Urborrur": "U"
  },
  {
    "UID": 35906,
    "Country": "Russian Federation",
    "Longitude": 55.745277,
    "Latlongid": 469,
    "Name1": "Krasnokamsk",
    "Latitude": 58.070934,
    "ES00POP": 56200,
    "Urborrur": "U"
  },
  {
    "UID": 35956,
    "Country": "Russian Federation",
    "Longitude": 57.8052778,
    "Latlongid": 545,
    "Name1": "Lysva",
    "Latitude": 58.1086111,
    "ES00POP": 75200,
    "Urborrur": "U"
  },
  {
    "UID": 36208,
    "Country": "Russian Federation",
    "Longitude": 68.2666667,
    "Latlongid": 1011,
    "Name1": "Tobolsk",
    "Latitude": 58.2,
    "ES00POP": 97200,
    "Urborrur": "U"
  },
  {
    "UID": 35729,
    "Country": "Russian Federation",
    "Longitude": 57.8,
    "Latlongid": 179,
    "Name1": "Cusovoj",
    "Latitude": 58.29,
    "ES00POP": 55200,
    "Urborrur": "U"
  },
  {
    "UID": 35862,
    "Country": "Russian Federation",
    "Longitude": 50.03,
    "Latlongid": 397,
    "Name1": "Kirovo-Cepeck",
    "Latitude": 58.55,
    "ES00POP": 91100,
    "Urborrur": "U"
  },
  {
    "UID": 35860,
    "Country": "Russian Federation",
    "Longitude": 49.6583333,
    "Latlongid": 394,
    "Name1": "Kirov",
    "Latitude": 58.5969444,
    "ES00POP": 456254,
    "Urborrur": "U"
  },
  {
    "UID": 35939,
    "Country": "Russian Federation",
    "Longitude": 59.8,
    "Latlongid": 520,
    "Name1": "Lesnoj",
    "Latitude": 58.67,
    "ES00POP": 54400,
    "Urborrur": "U"
  },
  {
    "UID": 35685,
    "Country": "Russian Federation",
    "Longitude": 56.9408333,
    "Latlongid": 97,
    "Name1": "Berezniki",
    "Latitude": 59.4947222,
    "ES00POP": 176084,
    "Urborrur": "U"
  },
  {
    "UID": 36148,
    "Country": "Russian Federation",
    "Longitude": 60.5741667,
    "Latlongid": 904,
    "Name1": "Serov",
    "Latitude": 59.6055556,
    "ES00POP": 100711,
    "Urborrur": "U"
  },
  {
    "UID": 36165,
    "Country": "Russian Federation",
    "Longitude": 56.75,
    "Latlongid": 938,
    "Name1": "Solikamsk",
    "Latitude": 59.6433333,
    "ES00POP": 103876,
    "Urborrur": "U"
  },
  {
    "UID": 35907,
    "Country": "Russian Federation",
    "Longitude": 60.1852778,
    "Latlongid": 471,
    "Name1": "Krasnoturinsk",
    "Latitude": 59.7733333,
    "ES00POP": 64800,
    "Urborrur": "U"
  },
  {
    "UID": 35893,
    "Country": "Russian Federation",
    "Longitude": 46.6555556,
    "Latlongid": 447,
    "Name1": "Kotlas",
    "Latitude": 61.2611111,
    "ES00POP": 66200,
    "Urborrur": "U"
  },
  {
    "UID": 36189,
    "Country": "Russian Federation",
    "Longitude": 50.8122222,
    "Latlongid": 981,
    "Name1": "Syktyvkar",
    "Latitude": 61.6666667,
    "ES00POP": 228432,
    "Urborrur": "U"
  },
  {
    "UID": 36019,
    "Country": "Russian Federation",
    "Longitude": 65.38,
    "Latlongid": 665,
    "Name1": "Njagan",
    "Latitude": 62.19,
    "ES00POP": 58900,
    "Urborrur": "U"
  },
  {
    "UID": 36230,
    "Country": "Russian Federation",
    "Longitude": 53.72,
    "Latlongid": 1050,
    "Name1": "Uhta",
    "Latitude": 63.57,
    "ES00POP": 104620,
    "Urborrur": "U"
  },
  {
    "UID": 36317,
    "Country": "Russian Federation",
    "Longitude": 57.3125762939,
    "Latlongid": 765,
    "Name1": "Pecora",
    "Latitude": 65.15209198,
    "ES00POP": 58100,
    "Urborrur": "U"
  },
  {
    "UID": 35787,
    "Country": "Russian Federation",
    "Longitude": 60.1333333,
    "Latlongid": 271,
    "Name1": "Inta",
    "Latitude": 66.06,
    "ES00POP": 50500,
    "Urborrur": "U"
  },
  {
    "UID": 36276,
    "Country": "Russian Federation",
    "Longitude": 64.0,
    "Latlongid": 1132,
    "Name1": "Vorkuta",
    "Latitude": 67.5,
    "ES00POP": 89800,
    "Urborrur": "U"
  },
  {
    "UID": 21084,
    "Country": "Kazakhstan",
    "Longitude": 69.16278,
    "Latlongid": 70,
    "Name1": "Petropavlovsk",
    "Latitude": 54.87528,
    "ES00POP": 200212,
    "Urborrur": "U"
  },
  {
    "UID": 35645,
    "Country": "Russian Federation",
    "Longitude": 52.31,
    "Latlongid": 23,
    "Name1": "Almetjevsk",
    "Latitude": 54.9,
    "ES00POP": 138666,
    "Urborrur": "U"
  },
  {
    "UID": 35716,
    "Country": "Russian Federation",
    "Longitude": 60.36,
    "Latlongid": 150,
    "Name1": "Cebarkul",
    "Latitude": 54.98,
    "ES00POP": 50700,
    "Urborrur": "U"
  },
  {
    "UID": 35973,
    "Country": "Russian Federation",
    "Longitude": 60.1,
    "Latlongid": 576,
    "Name1": "Miass",
    "Latitude": 54.9833333,
    "ES00POP": 159334,
    "Urborrur": "U"
  },
  {
    "UID": 36133,
    "Country": "Russian Federation",
    "Longitude": 59.0011111,
    "Latlongid": 882,
    "Name1": "Satka",
    "Latitude": 55.0377778,
    "ES00POP": 50000,
    "Urborrur": "U"
  },
  {
    "UID": 35883,
    "Country": "Russian Federation",
    "Longitude": 61.65,
    "Latlongid": 431,
    "Name1": "Kopejsk",
    "Latitude": 55.13,
    "ES00POP": 73100,
    "Urborrur": "U"
  },
  {
    "UID": 35719,
    "Country": "Russian Federation",
    "Longitude": 61.44,
    "Latlongid": 158,
    "Name1": "Celjabinsk",
    "Latitude": 55.15,
    "ES00POP": 1082666,
    "Urborrur": "U"
  },
  {
    "UID": 36303,
    "Country": "Russian Federation",
    "Longitude": 59.6675,
    "Latlongid": 1176,
    "Name1": "Zlatoust",
    "Latitude": 55.1730556,
    "ES00POP": 196336,
    "Urborrur": "U"
  },
  {
    "UID": 35727,
    "Country": "Russian Federation",
    "Longitude": 50.62,
    "Latlongid": 174,
    "Name1": "Cistopol",
    "Latitude": 55.37,
    "ES00POP": 66600,
    "Urborrur": "U"
  },
  {
    "UID": 35921,
    "Country": "Russian Federation",
    "Longitude": 65.3,
    "Latlongid": 492,
    "Name1": "Kurgan",
    "Latitude": 55.4333333,
    "ES00POP": 347265,
    "Urborrur": "U"
  },
  {
    "UID": 35841,
    "Country": "Russian Federation",
    "Longitude": 47.5,
    "Latlongid": 363,
    "Name1": "Kana\u009a",
    "Latitude": 55.5102778,
    "ES00POP": 56000,
    "Urborrur": "U"
  },
  {
    "UID": 36013,
    "Country": "Russian Federation",
    "Longitude": 51.79,
    "Latlongid": 652,
    "Name1": "Ni\u009enekamsk",
    "Latitude": 55.64,
    "ES00POP": 219812,
    "Urborrur": "U"
  },
  {
    "UID": 35993,
    "Country": "Russian Federation",
    "Longitude": 52.32,
    "Latlongid": 615,
    "Name1": "Nabere\u009enyje\u00a0Cel",
    "Latitude": 55.69,
    "ES00POP": 508605,
    "Urborrur": "U"
  },
  {
    "UID": 35852,
    "Country": "Russian Federation",
    "Longitude": 49.1333333,
    "Latlongid": 379,
    "Name1": "Kazan",
    "Latitude": 55.75,
    "ES00POP": 1103554,
    "Urborrur": "U"
  },
  {
    "UID": 35812,
    "Country": "Russian Federation",
    "Longitude": 52.07,
    "Latlongid": 317,
    "Name1": "Jelabuga",
    "Latitude": 55.76,
    "ES00POP": 67500,
    "Urborrur": "U"
  },
  {
    "UID": 36064,
    "Country": "Russian Federation",
    "Longitude": 60.7,
    "Latlongid": 755,
    "Name1": "Ozjorsk",
    "Latitude": 55.77,
    "ES00POP": 87500,
    "Urborrur": "U"
  },
  {
    "UID": 36299,
    "Country": "Russian Federation",
    "Longitude": 48.66,
    "Latlongid": 1170,
    "Name1": "Zeljonodolsk",
    "Latitude": 55.84,
    "ES00POP": 99136,
    "Urborrur": "U"
  },
  {
    "UID": 36273,
    "Country": "Russian Federation",
    "Longitude": 48.51,
    "Latlongid": 1125,
    "Name1": "Vol\u009esk",
    "Latitude": 55.85,
    "ES00POP": 61500,
    "Urborrur": "U"
  },
  {
    "UID": 36116,
    "Country": "Russian Federation",
    "Longitude": 63.62,
    "Latlongid": 848,
    "Name1": "\u008aadrinsk",
    "Latitude": 56.08,
    "ES00POP": 87300,
    "Urborrur": "U"
  },
  {
    "UID": 36005,
    "Country": "Russian Federation",
    "Longitude": 54.2666667,
    "Latlongid": 639,
    "Name1": "Neftekamsk",
    "Latitude": 56.0833333,
    "ES00POP": 119811,
    "Urborrur": "U"
  },
  {
    "UID": 35793,
    "Country": "Russian Federation",
    "Longitude": 69.46,
    "Latlongid": 281,
    "Name1": "I\u009aim",
    "Latitude": 56.11,
    "ES00POP": 61900,
    "Urborrur": "U"
  },
  {
    "UID": 36026,
    "Country": "Russian Federation",
    "Longitude": 47.49,
    "Latlongid": 680,
    "Name1": "Novoceboksarsk",
    "Latitude": 56.12,
    "ES00POP": 124158,
    "Urborrur": "U"
  },
  {
    "UID": 35717,
    "Country": "Russian Federation",
    "Longitude": 47.24,
    "Latlongid": 153,
    "Name1": "Ceboksary",
    "Latitude": 56.13,
    "ES00POP": 437534,
    "Urborrur": "U"
  },
  {
    "UID": 35838,
    "Country": "Russian Federation",
    "Longitude": 61.93,
    "Latlongid": 358,
    "Name1": "Kamensk-Uralski",
    "Latitude": 56.42,
    "ES00POP": 188200,
    "Urborrur": "U"
  },
  {
    "UID": 36084,
    "Country": "Russian Federation",
    "Longitude": 60.18,
    "Latlongid": 795,
    "Name1": "Polevskoj",
    "Latitude": 56.45,
    "ES00POP": 70400,
    "Urborrur": "U"
  },
  {
    "UID": 36127,
    "Country": "Russian Federation",
    "Longitude": 53.8038889,
    "Latlongid": 874,
    "Name1": "Sarapul",
    "Latitude": 56.4666667,
    "ES00POP": 104363,
    "Urborrur": "U"
  },
  {
    "UID": 35819,
    "Country": "Russian Federation",
    "Longitude": 47.87,
    "Latlongid": 328,
    "Name1": "Jo\u009akar-Ola",
    "Latitude": 56.64,
    "ES00POP": 254466,
    "Urborrur": "U"
  },
  {
    "UID": 35714,
    "Country": "Russian Federation",
    "Longitude": 54.08,
    "Latlongid": 147,
    "Name1": "Cajkovskij",
    "Latitude": 56.76,
    "ES00POP": 90100,
    "Urborrur": "U"
  },
  {
    "UID": 36101,
    "Country": "Russian Federation",
    "Longitude": 59.9283333,
    "Latlongid": 823,
    "Name1": "Revda",
    "Latitude": 56.8052778,
    "ES00POP": 65400,
    "Urborrur": "U"
  },
  {
    "UID": 35800,
    "Country": "Russian Federation",
    "Longitude": 53.19,
    "Latlongid": 294,
    "Name1": "I\u009eevsk",
    "Latitude": 56.84,
    "ES00POP": 632545,
    "Urborrur": "U"
  },
  {
    "UID": 35811,
    "Country": "Russian Federation",
    "Longitude": 60.6,
    "Latlongid": 316,
    "Name1": "Jekaterinburg",
    "Latitude": 56.85,
    "ES00POP": 1293768,
    "Urborrur": "U"
  },
  {
    "UID": 36074,
    "Country": "Russian Federation",
    "Longitude": 59.9544444,
    "Latlongid": 776,
    "Name1": "Pervouralsk",
    "Latitude": 56.9091667,
    "ES00POP": 133136,
    "Urborrur": "U"
  },
  {
    "UID": 36256,
    "Country": "Russian Federation",
    "Longitude": 60.59,
    "Latlongid": 1091,
    "Name1": "Verhnjaja\u00a0Py\u009ama",
    "Latitude": 56.97,
    "ES00POP": 54700,
    "Urborrur": "U"
  },
  {
    "UID": 35659,
    "Country": "Russian Federation",
    "Longitude": 61.4563889,
    "Latlongid": 51,
    "Name1": "Asbest",
    "Latitude": 57.0102778,
    "ES00POP": 81200,
    "Urborrur": "U"
  },
  {
    "UID": 36279,
    "Country": "Russian Federation",
    "Longitude": 53.9872222,
    "Latlongid": 1139,
    "Name1": "Votkinsk",
    "Latitude": 57.0441667,
    "ES00POP": 101890,
    "Urborrur": "U"
  },
  {
    "UID": 36207,
    "Country": "Russian Federation",
    "Longitude": 65.5272222,
    "Latlongid": 1009,
    "Name1": "Tjumen",
    "Latitude": 57.1522222,
    "ES00POP": 505364,
    "Urborrur": "U"
  },
  {
    "UID": 35718,
    "Country": "Russian Federation",
    "Longitude": 37.48,
    "Latlongid": 155,
    "Name1": "Cehov",
    "Latitude": 55.14,
    "ES00POP": 59100,
    "Urborrur": "U"
  },
  {
    "UID": 36278,
    "Country": "Russian Federation",
    "Longitude": 38.6866667,
    "Latlongid": 1136,
    "Name1": "Voskresensk",
    "Latitude": 55.3038889,
    "ES00POP": 79900,
    "Urborrur": "U"
  },
  {
    "UID": 36281,
    "Country": "Russian Federation",
    "Longitude": 42.1744444,
    "Latlongid": 1144,
    "Name1": "Vyksa",
    "Latitude": 55.3175,
    "ES00POP": 62800,
    "Urborrur": "U"
  },
  {
    "UID": 35872,
    "Country": "Russian Federation",
    "Longitude": 37.5336111,
    "Latlongid": 412,
    "Name1": "Klimovsk",
    "Latitude": 55.3608333,
    "ES00POP": 55400,
    "Urborrur": "U"
  },
  {
    "UID": 36095,
    "Country": "Russian Federation",
    "Longitude": 37.8530556,
    "Latlongid": 813,
    "Name1": "Pu\u009akino",
    "Latitude": 55.3711111,
    "ES00POP": 70200,
    "Urborrur": "U"
  },
  {
    "UID": 36130,
    "Country": "Russian Federation",
    "Longitude": 43.83,
    "Latlongid": 879,
    "Name1": "Sarov",
    "Latitude": 55.38,
    "ES00POP": 84000,
    "Urborrur": "U"
  },
  {
    "UID": 35809,
    "Country": "Russian Federation",
    "Longitude": 39.03,
    "Latlongid": 311,
    "Name1": "Jegorjevsk",
    "Latitude": 55.38,
    "ES00POP": 72700,
    "Urborrur": "U"
  },
  {
    "UID": 35999,
    "Country": "Russian Federation",
    "Longitude": 36.7411111,
    "Latlongid": 627,
    "Name1": "Naro-Fominsk",
    "Latitude": 55.3852778,
    "ES00POP": 57700,
    "Urborrur": "U"
  },
  {
    "UID": 36081,
    "Country": "Russian Federation",
    "Longitude": 37.5441667,
    "Latlongid": 791,
    "Name1": "Podolsk",
    "Latitude": 55.4238889,
    "ES00POP": 185482,
    "Urborrur": "U"
  },
  {
    "UID": 36330,
    "Country": "Russian Federation",
    "Longitude": 43.8759422302,
    "Latlongid": 48,
    "Name1": "Arzamas",
    "Latitude": 55.4335594177,
    "ES00POP": 109423,
    "Urborrur": "U"
  },
  {
    "UID": 35743,
    "Country": "Russian Federation",
    "Longitude": 37.7569444,
    "Latlongid": 200,
    "Name1": "Domodedovo",
    "Latitude": 55.4397222,
    "ES00POP": 57800,
    "Urborrur": "U"
  },
  {
    "UID": 36098,
    "Country": "Russian Federation",
    "Longitude": 38.35,
    "Latlongid": 818,
    "Name1": "Ramenskoje",
    "Latitude": 55.49,
    "ES00POP": 85100,
    "Urborrur": "U"
  },
  {
    "UID": 36259,
    "Country": "Russian Federation",
    "Longitude": 37.69,
    "Latlongid": 1096,
    "Name1": "Vidnoje",
    "Latitude": 55.54,
    "ES00POP": 53800,
    "Urborrur": "U"
  },
  {
    "UID": 36306,
    "Country": "Russian Federation",
    "Longitude": 38.25,
    "Latlongid": 1180,
    "Name1": "\u008eukovskij",
    "Latitude": 55.55,
    "ES00POP": 100835,
    "Urborrur": "U"
  },
  {
    "UID": 35990,
    "Country": "Russian Federation",
    "Longitude": 42.0416667,
    "Latlongid": 608,
    "Name1": "Murom",
    "Latitude": 55.5655556,
    "ES00POP": 126365,
    "Urborrur": "U"
  },
  {
    "UID": 35776,
    "Country": "Russian Federation",
    "Longitude": 40.65,
    "Latlongid": 253,
    "Name1": "Gus-Hrustalnyj",
    "Latitude": 55.61,
    "ES00POP": 73400,
    "Urborrur": "U"
  },
  {
    "UID": 35948,
    "Country": "Russian Federation",
    "Longitude": 37.95,
    "Latlongid": 534,
    "Name1": "Ljubercy",
    "Latitude": 55.66,
    "ES00POP": 158120,
    "Urborrur": "U"
  },
  {
    "UID": 36047,
    "Country": "Russian Federation",
    "Longitude": 37.29,
    "Latlongid": 722,
    "Name1": "Odincovo",
    "Latitude": 55.67,
    "ES00POP": 133160,
    "Urborrur": "U"
  },
  {
    "UID": 36292,
    "Country": "Russian Federation",
    "Longitude": 38.13,
    "Latlongid": 1158,
    "Name1": "\u008eeleznodoro\u009enyj",
    "Latitude": 55.75,
    "ES00POP": 101348,
    "Urborrur": "U"
  },
  {
    "UID": 35984,
    "Country": "Russian Federation",
    "Longitude": 37.6155556,
    "Latlongid": 597,
    "Name1": "Moscow",
    "Latitude": 55.7522222,
    "ES00POP": 9886286,
    "Urborrur": "U"
  },
  {
    "UID": 36100,
    "Country": "Russian Federation",
    "Longitude": 37.8575,
    "Latlongid": 821,
    "Name1": "Reutov",
    "Latitude": 55.7611111,
    "ES00POP": 71400,
    "Urborrur": "U"
  },
  {
    "UID": 36070,
    "Country": "Russian Federation",
    "Longitude": 38.67,
    "Latlongid": 763,
    "Name1": "Pavlovskij\u00a0Posa",
    "Latitude": 55.77,
    "ES00POP": 66200,
    "Urborrur": "U"
  },
  {
    "UID": 35750,
    "Country": "Russian Federation",
    "Longitude": 38.4422222,
    "Latlongid": 212,
    "Name1": "Elektrostal",
    "Latitude": 55.7919444,
    "ES00POP": 147141,
    "Urborrur": "U"
  },
  {
    "UID": 36055,
    "Country": "Russian Federation",
    "Longitude": 38.97,
    "Latlongid": 736,
    "Name1": "Orehovo-Zujevo",
    "Latitude": 55.8,
    "ES00POP": 123454,
    "Urborrur": "U"
  },
  {
    "UID": 35903,
    "Country": "Russian Federation",
    "Longitude": 37.33,
    "Latlongid": 462,
    "Name1": "Krasnogorsk",
    "Latitude": 55.83,
    "ES00POP": 90600,
    "Urborrur": "U"
  },
  {
    "UID": 35670,
    "Country": "Russian Federation",
    "Longitude": 37.95,
    "Latlongid": 68,
    "Name1": "Bala\u009aiha",
    "Latitude": 55.83,
    "ES00POP": 146254,
    "Urborrur": "U"
  },
  {
    "UID": 36021,
    "Country": "Russian Federation",
    "Longitude": 38.4411111,
    "Latlongid": 669,
    "Name1": "Noginsk",
    "Latitude": 55.8536111,
    "ES00POP": 118756,
    "Urborrur": "U"
  },
  {
    "UID": 35781,
    "Country": "Russian Federation",
    "Longitude": 37.44,
    "Latlongid": 264,
    "Name1": "Himki",
    "Latitude": 55.89,
    "ES00POP": 139990,
    "Urborrur": "U"
  },
  {
    "UID": 35992,
    "Country": "Russian Federation",
    "Longitude": 37.75,
    "Latlongid": 612,
    "Name1": "Myti\u009aci",
    "Latitude": 55.9,
    "ES00POP": 158389,
    "Urborrur": "U"
  },
  {
    "UID": 36138,
    "Country": "Russian Federation",
    "Longitude": 38.02,
    "Latlongid": 890,
    "Name1": "\u008acjolkovo",
    "Latitude": 55.9,
    "ES00POP": 112964,
    "Urborrur": "U"
  },
  {
    "UID": 35887,
    "Country": "Russian Federation",
    "Longitude": 37.8255556,
    "Latlongid": 438,
    "Name1": "Korolyov",
    "Latitude": 55.9141667,
    "ES00POP": 141661,
    "Urborrur": "U"
  },
  {
    "UID": 35742,
    "Country": "Russian Federation",
    "Longitude": 37.51,
    "Latlongid": 199,
    "Name1": "Dolgoprudnyj",
    "Latitude": 55.92,
    "ES00POP": 67600,
    "Urborrur": "U"
  },
  {
    "UID": 36297,
    "Country": "Russian Federation",
    "Longitude": 37.29,
    "Latlongid": 1166,
    "Name1": "Zeljenograd",
    "Latitude": 55.94,
    "ES00POP": 205775,
    "Urborrur": "U"
  },
  {
    "UID": 35754,
    "Country": "Russian Federation",
    "Longitude": 38.05,
    "Latlongid": 221,
    "Name1": "Frjazino",
    "Latitude": 55.95,
    "ES00POP": 53000,
    "Urborrur": "U"
  },
  {
    "UID": 36068,
    "Country": "Russian Federation",
    "Longitude": 43.0677778,
    "Latlongid": 760,
    "Name1": "Pavlovo",
    "Latitude": 55.9641667,
    "ES00POP": 70400,
    "Urborrur": "U"
  },
  {
    "UID": 35798,
    "Country": "Russian Federation",
    "Longitude": 37.9167,
    "Latlongid": 290,
    "Name1": "Ivantejevka",
    "Latitude": 55.9667,
    "ES00POP": 51100,
    "Urborrur": "U"
  },
  {
    "UID": 35950,
    "Country": "Russian Federation",
    "Longitude": 37.49,
    "Latlongid": 537,
    "Name1": "Lobnja",
    "Latitude": 56.0,
    "ES00POP": 59700,
    "Urborrur": "U"
  },
  {
    "UID": 35914,
    "Country": "Russian Federation",
    "Longitude": 44.1925,
    "Latlongid": 481,
    "Name1": "Kstovo",
    "Latitude": 56.1425,
    "ES00POP": 69400,
    "Urborrur": "U"
  },
  {
    "UID": 36266,
    "Country": "Russian Federation",
    "Longitude": 40.3980556,
    "Latlongid": 1108,
    "Name1": "Vladimir",
    "Latitude": 56.1427778,
    "ES00POP": 319107,
    "Urborrur": "U"
  },
  {
    "UID": 36167,
    "Country": "Russian Federation",
    "Longitude": 36.95,
    "Latlongid": 940,
    "Name1": "Solnecnogorsk",
    "Latitude": 56.18,
    "ES00POP": 58000,
    "Urborrur": "U"
  },
  {
    "UID": 35748,
    "Country": "Russian Federation",
    "Longitude": 43.4,
    "Latlongid": 208,
    "Name1": "Dzer\u009einsk",
    "Latitude": 56.27,
    "ES00POP": 264899,
    "Urborrur": "U"
  },
  {
    "UID": 36147,
    "Country": "Russian Federation",
    "Longitude": 38.13,
    "Latlongid": 901,
    "Name1": "Sergijev\u00a0Posad",
    "Latitude": 56.32,
    "ES00POP": 113984,
    "Urborrur": "U"
  },
  {
    "UID": 36137,
    "Country": "Russian Federation",
    "Longitude": 37.51,
    "Latlongid": 887,
    "Name1": "\u008acjokino",
    "Latitude": 54.01,
    "ES00POP": 64500,
    "Urborrur": "U"
  },
  {
    "UID": 36113,
    "Country": "Russian Federation",
    "Longitude": 44.95,
    "Latlongid": 841,
    "Name1": "Ruzajevka",
    "Latitude": 54.07,
    "ES00POP": 52700,
    "Urborrur": "U"
  },
  {
    "UID": 36032,
    "Country": "Russian Federation",
    "Longitude": 38.2202778,
    "Latlongid": 695,
    "Name1": "Novomoskovsk",
    "Latitude": 54.0869444,
    "ES00POP": 135780,
    "Urborrur": "U"
  },
  {
    "UID": 36126,
    "Country": "Russian Federation",
    "Longitude": 45.1833333,
    "Latlongid": 871,
    "Name1": "Saransk",
    "Latitude": 54.1833333,
    "ES00POP": 305982,
    "Urborrur": "U"
  },
  {
    "UID": 36219,
    "Country": "Russian Federation",
    "Longitude": 37.6111111,
    "Latlongid": 1032,
    "Name1": "Tula",
    "Latitude": 54.2044444,
    "ES00POP": 482134,
    "Urborrur": "U"
  },
  {
    "UID": 35644,
    "Country": "Russian Federation",
    "Longitude": 37.089748,
    "Latlongid": 20,
    "Name1": "Aleksin",
    "Latitude": 54.517776,
    "ES00POP": 69800,
    "Urborrur": "U"
  },
  {
    "UID": 36103,
    "Country": "Russian Federation",
    "Longitude": 39.7,
    "Latlongid": 827,
    "Name1": "Rjazan",
    "Latitude": 54.6,
    "ES00POP": 520664,
    "Urborrur": "U"
  },
  {
    "UID": 36180,
    "Country": "Russian Federation",
    "Longitude": 38.0708333,
    "Latlongid": 964,
    "Name1": "Stupino",
    "Latitude": 54.9008333,
    "ES00POP": 65600,
    "Urborrur": "U"
  },
  {
    "UID": 36149,
    "Country": "Russian Federation",
    "Longitude": 37.43,
    "Latlongid": 906,
    "Name1": "Serpuchov",
    "Latitude": 54.92,
    "ES00POP": 131918,
    "Urborrur": "U"
  },
  {
    "UID": 35877,
    "Country": "Russian Federation",
    "Longitude": 38.7783333,
    "Latlongid": 422,
    "Name1": "Kolomna",
    "Latitude": 55.0794444,
    "ES00POP": 150844,
    "Urborrur": "U"
  },
  {
    "UID": 36311,
    "Country": "Russian Federation",
    "Longitude": 58.4595108032,
    "Latlongid": 90,
    "Name1": "Beloreck",
    "Latitude": 54.0037994385,
    "ES00POP": 73300,
    "Urborrur": "U"
  },
  {
    "UID": 35679,
    "Country": "Russian Federation",
    "Longitude": 54.11,
    "Latlongid": 81,
    "Name1": "Belebej",
    "Latitude": 54.11,
    "ES00POP": 60600,
    "Urborrur": "U"
  },
  {
    "UID": 36217,
    "Country": "Russian Federation",
    "Longitude": 61.57,
    "Latlongid": 1025,
    "Name1": "Troick",
    "Latitude": 54.11,
    "ES00POP": 86000,
    "Urborrur": "U"
  },
  {
    "UID": 35736,
    "Country": "Russian Federation",
    "Longitude": 49.55,
    "Latlongid": 191,
    "Name1": "Dimitrovgrad",
    "Latitude": 54.25,
    "ES00POP": 129814,
    "Urborrur": "U"
  },
  {
    "UID": 36232,
    "Country": "Russian Federation",
    "Longitude": 48.36,
    "Latlongid": 1056,
    "Name1": "Uljanovsk",
    "Latitude": 54.31,
    "ES00POP": 633958,
    "Urborrur": "U"
  },
  {
    "UID": 36050,
    "Country": "Russian Federation",
    "Longitude": 53.46,
    "Latlongid": 727,
    "Name1": "Oktjabrskij",
    "Latitude": 54.47,
    "ES00POP": 108122,
    "Urborrur": "U"
  },
  {
    "UID": 35708,
    "Country": "Russian Federation",
    "Longitude": 52.8,
    "Latlongid": 138,
    "Name1": "Bugulma",
    "Latitude": 54.55,
    "ES00POP": 93700,
    "Urborrur": "U"
  },
  {
    "UID": 36218,
    "Country": "Russian Federation",
    "Longitude": 53.7,
    "Latlongid": 1029,
    "Name1": "Tujmazy",
    "Latitude": 54.6,
    "ES00POP": 63400,
    "Urborrur": "U"
  },
  {
    "UID": 35935,
    "Country": "Russian Federation",
    "Longitude": 52.5,
    "Latlongid": 514,
    "Name1": "Leninogorsk",
    "Latitude": 54.6,
    "ES00POP": 68100,
    "Urborrur": "U"
  },
  {
    "UID": 36228,
    "Country": "Russian Federation",
    "Longitude": 55.9333333,
    "Latlongid": 1046,
    "Name1": "Ufa",
    "Latitude": 54.7333333,
    "ES00POP": 1047799,
    "Urborrur": "U"
  },
  {
    "UID": 36243,
    "Country": "Russian Federation",
    "Longitude": 105.6483333,
    "Latlongid": 1073,
    "Name1": "Ust-Kut",
    "Latitude": 56.7658333,
    "ES00POP": 57100,
    "Urborrur": "U"
  },
  {
    "UID": 36004,
    "Country": "Russian Federation",
    "Longitude": 72.73,
    "Latlongid": 636,
    "Name1": "Neftejugansk",
    "Latitude": 61.143,
    "ES00POP": 105540,
    "Urborrur": "U"
  },
  {
    "UID": 36329,
    "Country": "Russian Federation",
    "Longitude": 73.4851913452,
    "Latlongid": 972,
    "Name1": "Surgut",
    "Latitude": 61.3636398315,
    "ES00POP": 279382,
    "Urborrur": "U"
  },
  {
    "UID": 35875,
    "Country": "Russian Federation",
    "Longitude": 74.6,
    "Latlongid": 417,
    "Name1": "Kogalym",
    "Latitude": 62.144,
    "ES00POP": 54900,
    "Urborrur": "U"
  },
  {
    "UID": 36022,
    "Country": "Russian Federation",
    "Longitude": 75.38,
    "Latlongid": 670,
    "Name1": "Nojabrsk",
    "Latitude": 63.14,
    "ES00POP": 96400,
    "Urborrur": "U"
  },
  {
    "UID": 35683,
    "Country": "Russian Federation",
    "Longitude": 86.2986111,
    "Latlongid": 92,
    "Name1": "Belovo",
    "Latitude": 54.4216667,
    "ES00POP": 80200,
    "Urborrur": "U"
  },
  {
    "UID": 36220,
    "Country": "Russian Federation",
    "Longitude": 100.5791667,
    "Latlongid": 1034,
    "Name1": "Tulun",
    "Latitude": 54.5611111,
    "ES00POP": 53200,
    "Urborrur": "U"
  },
  {
    "UID": 35936,
    "Country": "Russian Federation",
    "Longitude": 86.16,
    "Latlongid": 517,
    "Name1": "Leninsk-Kuzneck",
    "Latitude": 54.66,
    "ES00POP": 114166,
    "Urborrur": "U"
  },
  {
    "UID": 35853,
    "Country": "Russian Federation",
    "Longitude": 86.0833333,
    "Latlongid": 382,
    "Name1": "Kemerovo",
    "Latitude": 55.3333333,
    "ES00POP": 488912,
    "Urborrur": "U"
  },
  {
    "UID": 35687,
    "Country": "Russian Federation",
    "Longitude": 86.26,
    "Latlongid": 99,
    "Name1": "Berjozovskij",
    "Latitude": 55.67,
    "ES00POP": 50400,
    "Urborrur": "U"
  },
  {
    "UID": 35821,
    "Country": "Russian Federation",
    "Longitude": 84.91,
    "Latlongid": 332,
    "Name1": "Jurga",
    "Latitude": 55.73,
    "ES00POP": 85400,
    "Urborrur": "U"
  },
  {
    "UID": 36001,
    "Country": "Russian Federation",
    "Longitude": 90.3913889,
    "Latlongid": 630,
    "Name1": "Nazarovo",
    "Latitude": 56.0063889,
    "ES00POP": 63200,
    "Urborrur": "U"
  },
  {
    "UID": 35904,
    "Country": "Russian Federation",
    "Longitude": 93.06,
    "Latlongid": 465,
    "Name1": "Krasnojarsk",
    "Latitude": 56.02,
    "ES00POP": 905157,
    "Urborrur": "U"
  },
  {
    "UID": 35650,
    "Country": "Russian Federation",
    "Longitude": 86.0372222,
    "Latlongid": 32,
    "Name1": "Anzhero-Sudzhen",
    "Latitude": 56.0777778,
    "ES00POP": 95000,
    "Urborrur": "U"
  },
  {
    "UID": 36291,
    "Country": "Russian Federation",
    "Longitude": 94.5861111,
    "Latlongid": 1156,
    "Name1": "Zelenogorsk",
    "Latitude": 56.1147222,
    "ES00POP": 68800,
    "Urborrur": "U"
  },
  {
    "UID": 35705,
    "Country": "Russian Federation",
    "Longitude": 101.6141667,
    "Latlongid": 132,
    "Name1": "Bratsk",
    "Latitude": 56.1325,
    "ES00POP": 258705,
    "Urborrur": "U"
  },
  {
    "UID": 35843,
    "Country": "Russian Federation",
    "Longitude": 95.7094444,
    "Latlongid": 367,
    "Name1": "Kansk",
    "Latitude": 56.2002778,
    "ES00POP": 104133,
    "Urborrur": "U"
  },
  {
    "UID": 35633,
    "Country": "Russian Federation",
    "Longitude": 90.5008333,
    "Latlongid": 8,
    "Name1": "Achinsk",
    "Latitude": 56.2780556,
    "ES00POP": 119202,
    "Urborrur": "U"
  },
  {
    "UID": 36293,
    "Country": "Russian Federation",
    "Longitude": 93.6,
    "Latlongid": 1159,
    "Name1": "\u008eeleznogorsk",
    "Latitude": 56.33,
    "ES00POP": 94200,
    "Urborrur": "U"
  },
  {
    "UID": 36212,
    "Country": "Russian Federation",
    "Longitude": 84.9666667,
    "Latlongid": 1018,
    "Name1": "Tomsk",
    "Latitude": 56.5,
    "ES00POP": 485409,
    "Urborrur": "U"
  },
  {
    "UID": 36154,
    "Country": "Russian Federation",
    "Longitude": 84.8327778,
    "Latlongid": 916,
    "Name1": "Seversk",
    "Latitude": 56.6133333,
    "ES00POP": 113649,
    "Urborrur": "U"
  },
  {
    "UID": 36241,
    "Country": "Russian Federation",
    "Longitude": 102.6619444,
    "Latlongid": 1071,
    "Name1": "Ust-Ilimsk",
    "Latitude": 58.0005556,
    "ES00POP": 101849,
    "Urborrur": "U"
  },
  {
    "UID": 35940,
    "Country": "Russian Federation",
    "Longitude": 92.3944444,
    "Latlongid": 521,
    "Name1": "Lesosibirsk",
    "Latitude": 58.2930556,
    "ES00POP": 68500,
    "Urborrur": "U"
  },
  {
    "UID": 36327,
    "Country": "Russian Federation",
    "Longitude": 88.0916595459,
    "Latlongid": 673,
    "Name1": "Norilsk",
    "Latitude": 69.3384857178,
    "ES00POP": 140587,
    "Urborrur": "U"
  },
  {
    "UID": 36196,
    "Country": "Russian Federation",
    "Longitude": 88.45,
    "Latlongid": 992,
    "Name1": "Talnah",
    "Latitude": 69.5,
    "ES00POP": 62900,
    "Urborrur": "U"
  },
  {
    "UID": 36052,
    "Country": "Russian Federation",
    "Longitude": 73.4,
    "Latlongid": 731,
    "Name1": "Omsk",
    "Latitude": 55.0,
    "ES00POP": 1136058,
    "Urborrur": "U"
  },
  {
    "UID": 35795,
    "Country": "Russian Federation",
    "Longitude": 83.3,
    "Latlongid": 285,
    "Name1": "Iskitim",
    "Latitude": 54.6333333,
    "ES00POP": 68300,
    "Urborrur": "U"
  },
  {
    "UID": 35684,
    "Country": "Russian Federation",
    "Longitude": 83.0333333,
    "Latlongid": 94,
    "Name1": "Berdsk",
    "Latitude": 54.7833333,
    "ES00POP": 86600,
    "Urborrur": "U"
  },
  {
    "UID": 36036,
    "Country": "Russian Federation",
    "Longitude": 82.9166667,
    "Latlongid": 705,
    "Name1": "Novosibirsk",
    "Latitude": 55.0333333,
    "ES00POP": 1420378,
    "Urborrur": "U"
  },
  {
    "UID": 35916,
    "Country": "Russian Federation",
    "Longitude": 78.3,
    "Latlongid": 483,
    "Name1": "Kujby\u009aev",
    "Latitude": 55.44,
    "ES00POP": 51300,
    "Urborrur": "U"
  },
  {
    "UID": 36328,
    "Country": "Russian Federation",
    "Longitude": 76.8176040649,
    "Latlongid": 656,
    "Name1": "Ni\u009enevartovsk",
    "Latitude": 60.9437484741,
    "ES00POP": 239307,
    "Urborrur": "U"
  },
  {
    "UID": 36042,
    "Country": "Russian Federation",
    "Longitude": 76.83,
    "Latlongid": 713,
    "Name1": "Novyj\u00a0Urengoj",
    "Latitude": 66.04,
    "ES00POP": 89200,
    "Urborrur": "U"
  },
  {
    "UID": 36007,
    "Country": "Russian Federation",
    "Longitude": 124.67,
    "Latlongid": 642,
    "Name1": "Nerjungri",
    "Latitude": 56.68,
    "ES00POP": 72600,
    "Urborrur": "U"
  },
  {
    "UID": 35802,
    "Country": "Russian Federation",
    "Longitude": 129.83,
    "Latlongid": 299,
    "Name1": "Jakutsk",
    "Latitude": 62.17,
    "ES00POP": 205870,
    "Urborrur": "U"
  },
  {
    "UID": 35958,
    "Country": "Russian Federation",
    "Longitude": 150.8,
    "Latlongid": 549,
    "Name1": "Magadan",
    "Latitude": 59.5666667,
    "ES00POP": 121000,
    "Urborrur": "U"
  },
  {
    "UID": 50559,
    "Country": "United States of America",
    "Longitude": -157.826182,
    "Latlongid": 20006,
    "Name1": "Honolulu",
    "Latitude": 21.30895,
    "ES00POP": 371657,
    "Urborrur": "U"
  },
  {
    "UID": 45560,
    "Country": "United States of America",
    "Longitude": -121.738095,
    "Latlongid": 10552,
    "Name1": "Davis",
    "Latitude": 38.553856,
    "ES00POP": 60308,
    "Urborrur": "U"
  },
  {
    "UID": 60199,
    "Country": "United States of America",
    "Longitude": -121.468926,
    "Latlongid": 38135,
    "Name1": "Sacramento",
    "Latitude": 38.555605,
    "ES00POP": 407018,
    "Urborrur": "U"
  },
  {
    "UID": 59075,
    "Country": "United States of America",
    "Longitude": -121.297269,
    "Latlongid": 36043,
    "Name1": "Rancho Cordova",
    "Latitude": 38.585083,
    "ES00POP": 55060,
    "Urborrur": "U"
  },
  {
    "UID": 40697,
    "Country": "United States of America",
    "Longitude": -121.37975,
    "Latlongid": 1346,
    "Name1": "Arden-Arcade",
    "Latitude": 38.605154,
    "ES00POP": 96025,
    "Urborrur": "U"
  },
  {
    "UID": 47774,
    "Country": "United States of America",
    "Longitude": -121.157838,
    "Latlongid": 14728,
    "Name1": "Folsom",
    "Latitude": 38.672127,
    "ES00POP": 51884,
    "Urborrur": "U"
  },
  {
    "UID": 44250,
    "Country": "United States of America",
    "Longitude": -121.290548,
    "Latlongid": 8045,
    "Name1": "Citrus Heights",
    "Latitude": 38.694702,
    "ES00POP": 85071,
    "Urborrur": "U"
  },
  {
    "UID": 59975,
    "Country": "United States of America",
    "Longitude": -121.289338,
    "Latlongid": 37707,
    "Name1": "Roseville",
    "Latitude": 38.752434,
    "ES00POP": 79921,
    "Urborrur": "U"
  },
  {
    "UID": 53233,
    "Country": "United States of America",
    "Longitude": -121.280926,
    "Latlongid": 25010,
    "Name1": "Lodi",
    "Latitude": 38.128751,
    "ES00POP": 56999,
    "Urborrur": "U"
  },
  {
    "UID": 58035,
    "Country": "United States of America",
    "Longitude": -122.631276,
    "Latlongid": 34111,
    "Name1": "Petaluma",
    "Latitude": 38.245849,
    "ES00POP": 54548,
    "Urborrur": "U"
  },
  {
    "UID": 47328,
    "Country": "United States of America",
    "Longitude": -122.054256,
    "Latlongid": 13890,
    "Name1": "Fairfield",
    "Latitude": 38.257763,
    "ES00POP": 96178,
    "Urborrur": "U"
  },
  {
    "UID": 55789,
    "Country": "United States of America",
    "Longitude": -122.298885,
    "Latlongid": 29873,
    "Name1": "Napa",
    "Latitude": 38.304764,
    "ES00POP": 72585,
    "Urborrur": "U"
  },
  {
    "UID": 63577,
    "Country": "United States of America",
    "Longitude": -121.972683,
    "Latlongid": 44459,
    "Name1": "Vacaville",
    "Latitude": 38.35381,
    "ES00POP": 88625,
    "Urborrur": "U"
  },
  {
    "UID": 46822,
    "Country": "United States of America",
    "Longitude": -121.381925,
    "Latlongid": 12920,
    "Name1": "Elk Grove",
    "Latitude": 38.438222,
    "ES00POP": 59984,
    "Urborrur": "U"
  },
  {
    "UID": 60464,
    "Country": "United States of America",
    "Longitude": -122.704646,
    "Latlongid": 38617,
    "Name1": "Santa Rosa",
    "Latitude": 38.448611,
    "ES00POP": 147595,
    "Urborrur": "U"
  },
  {
    "UID": 59444,
    "Country": "United States of America",
    "Longitude": -122.342057,
    "Latlongid": 36735,
    "Name1": "Richmond",
    "Latitude": 37.936874,
    "ES00POP": 99216,
    "Urborrur": "U"
  },
  {
    "UID": 44818,
    "Country": "United States of America",
    "Longitude": -122.015135,
    "Latlongid": 9139,
    "Name1": "Concord",
    "Latitude": 37.967825,
    "ES00POP": 121780,
    "Urborrur": "U"
  },
  {
    "UID": 62177,
    "Country": "United States of America",
    "Longitude": -121.300868,
    "Latlongid": 41861,
    "Name1": "Stockton",
    "Latitude": 37.975623,
    "ES00POP": 243771,
    "Urborrur": "U"
  },
  {
    "UID": 60432,
    "Country": "United States of America",
    "Longitude": -122.523694,
    "Latlongid": 38559,
    "Name1": "San Rafael",
    "Latitude": 37.983256,
    "ES00POP": 56063,
    "Urborrur": "U"
  },
  {
    "UID": 40607,
    "Country": "United States of America",
    "Longitude": -121.802225,
    "Latlongid": 1175,
    "Name1": "Antioch",
    "Latitude": 37.992421,
    "ES00POP": 90532,
    "Urborrur": "U"
  },
  {
    "UID": 58299,
    "Country": "United States of America",
    "Longitude": -121.892491,
    "Latlongid": 34593,
    "Name1": "Pittsburg",
    "Latitude": 38.015021,
    "ES00POP": 56769,
    "Urborrur": "U"
  },
  {
    "UID": 63605,
    "Country": "United States of America",
    "Longitude": -122.235882,
    "Latlongid": 44510,
    "Name1": "Vallejo",
    "Latitude": 38.112969,
    "ES00POP": 116760,
    "Urborrur": "U"
  },
  {
    "UID": 49969,
    "Country": "United States of America",
    "Longitude": -122.076971,
    "Latlongid": 18899,
    "Name1": "Hayward",
    "Latitude": 37.643632,
    "ES00POP": 140030,
    "Urborrur": "U"
  },
  {
    "UID": 61575,
    "Country": "United States of America",
    "Longitude": -122.425525,
    "Latlongid": 40719,
    "Name1": "South San Fran",
    "Latitude": 37.655983,
    "ES00POP": 60552,
    "Urborrur": "U"
  },
  {
    "UID": 55113,
    "Country": "United States of America",
    "Longitude": -120.994543,
    "Latlongid": 28584,
    "Name1": "Modesto",
    "Latitude": 37.661479,
    "ES00POP": 188856,
    "Urborrur": "U"
  },
  {
    "UID": 58407,
    "Country": "United States of America",
    "Longitude": -121.882517,
    "Latlongid": 34798,
    "Name1": "Pleasanton",
    "Latitude": 37.67253,
    "ES00POP": 63654,
    "Urborrur": "U"
  },
  {
    "UID": 53162,
    "Country": "United States of America",
    "Longitude": -121.764096,
    "Latlongid": 24873,
    "Name1": "Livermore",
    "Latitude": 37.685496,
    "ES00POP": 73345,
    "Urborrur": "U"
  },
  {
    "UID": 45467,
    "Country": "United States of America",
    "Longitude": -122.46595,
    "Latlongid": 10376,
    "Name1": "Daly",
    "Latitude": 37.6907,
    "ES00POP": 103621,
    "Urborrur": "U"
  },
  {
    "UID": 43648,
    "Country": "United States of America",
    "Longitude": -122.079384,
    "Latlongid": 6935,
    "Name1": "Castro Valley",
    "Latitude": 37.703796,
    "ES00POP": 57292,
    "Urborrur": "U"
  },
  {
    "UID": 60409,
    "Country": "United States of America",
    "Longitude": -122.153357,
    "Latlongid": 38518,
    "Name1": "San Leandro",
    "Latitude": 37.710697,
    "ES00POP": 79452,
    "Urborrur": "U"
  },
  {
    "UID": 63146,
    "Country": "United States of America",
    "Longitude": -121.433857,
    "Latlongid": 43650,
    "Name1": "Tracy",
    "Latitude": 37.737979,
    "ES00POP": 56929,
    "Urborrur": "U"
  },
  {
    "UID": 60388,
    "Country": "United States of America",
    "Longitude": -122.437392,
    "Latlongid": 38481,
    "Name1": "San Francisco",
    "Latitude": 37.759881,
    "ES00POP": 776733,
    "Urborrur": "U"
  },
  {
    "UID": 40143,
    "Country": "United States of America",
    "Longitude": -122.25681,
    "Latlongid": 306,
    "Name1": "Alameda",
    "Latitude": 37.763971,
    "ES00POP": 72259,
    "Urborrur": "U"
  },
  {
    "UID": 56858,
    "Country": "United States of America",
    "Longitude": -122.228111,
    "Latlongid": 31892,
    "Name1": "Oakland",
    "Latitude": 37.795227,
    "ES00POP": 399484,
    "Urborrur": "U"
  },
  {
    "UID": 41789,
    "Country": "United States of America",
    "Longitude": -122.274603,
    "Latlongid": 3423,
    "Name1": "Berkeley",
    "Latitude": 37.871775,
    "ES00POP": 102743,
    "Urborrur": "U"
  },
  {
    "UID": 64086,
    "Country": "United States of America",
    "Longitude": -122.047373,
    "Latlongid": 45407,
    "Name1": "Walnut Creek",
    "Latitude": 37.909956,
    "ES00POP": 64296,
    "Urborrur": "U"
  },
  {
    "UID": 60402,
    "Country": "United States of America",
    "Longitude": -121.872734,
    "Latlongid": 38504,
    "Name1": "San Jose",
    "Latitude": 37.304051,
    "ES00POP": 894943,
    "Urborrur": "U"
  },
  {
    "UID": 54619,
    "Country": "United States of America",
    "Longitude": -120.477916,
    "Latlongid": 27640,
    "Name1": "Merced",
    "Latitude": 37.305977,
    "ES00POP": 63893,
    "Urborrur": "U"
  },
  {
    "UID": 45371,
    "Country": "United States of America",
    "Longitude": -122.041949,
    "Latlongid": 10188,
    "Name1": "Cupertino",
    "Latitude": 37.317492,
    "ES00POP": 50546,
    "Urborrur": "U"
  },
  {
    "UID": 60441,
    "Country": "United States of America",
    "Longitude": -121.969119,
    "Latlongid": 38577,
    "Name1": "Santa Clara",
    "Latitude": 37.354441,
    "ES00POP": 102361,
    "Urborrur": "U"
  },
  {
    "UID": 62446,
    "Country": "United States of America",
    "Longitude": -122.02602,
    "Latlongid": 42363,
    "Name1": "Sunnyvale",
    "Latitude": 37.371991,
    "ES00POP": 131760,
    "Urborrur": "U"
  },
  {
    "UID": 55511,
    "Country": "United States of America",
    "Longitude": -122.082023,
    "Latlongid": 29347,
    "Name1": "Mountain View",
    "Latitude": 37.39264,
    "ES00POP": 70708,
    "Urborrur": "U"
  },
  {
    "UID": 57601,
    "Country": "United States of America",
    "Longitude": -122.138162,
    "Latlongid": 33293,
    "Name1": "Palo Alto",
    "Latitude": 37.429289,
    "ES00POP": 58598,
    "Urborrur": "U"
  },
  {
    "UID": 54966,
    "Country": "United States of America",
    "Longitude": -121.895059,
    "Latlongid": 28302,
    "Name1": "Milpitas",
    "Latitude": 37.434586,
    "ES00POP": 62698,
    "Urborrur": "U"
  },
  {
    "UID": 59267,
    "Country": "United States of America",
    "Longitude": -122.236006,
    "Latlongid": 36405,
    "Name1": "Redwood",
    "Latitude": 37.482887,
    "ES00POP": 75402,
    "Urborrur": "U"
  },
  {
    "UID": 63327,
    "Country": "United States of America",
    "Longitude": -120.849019,
    "Latlongid": 43995,
    "Name1": "Turlock",
    "Latitude": 37.505725,
    "ES00POP": 55810,
    "Urborrur": "U"
  },
  {
    "UID": 48191,
    "Country": "United States of America",
    "Longitude": -121.982786,
    "Latlongid": 15513,
    "Name1": "Fremont",
    "Latitude": 37.542943,
    "ES00POP": 203413,
    "Urborrur": "U"
  },
  {
    "UID": 60424,
    "Country": "United States of America",
    "Longitude": -122.313044,
    "Latlongid": 38545,
    "Name1": "San Mateo",
    "Latitude": 37.554286,
    "ES00POP": 92482,
    "Urborrur": "U"
  },
  {
    "UID": 63448,
    "Country": "United States of America",
    "Longitude": -122.045775,
    "Latlongid": 44228,
    "Name1": "Union",
    "Latitude": 37.592184,
    "ES00POP": 66869,
    "Urborrur": "U"
  },
  {
    "UID": 60265,
    "Country": "United States of America",
    "Longitude": -121.643128,
    "Latlongid": 38253,
    "Name1": "Salinas",
    "Latitude": 36.683859,
    "ES00POP": 151060,
    "Urborrur": "U"
  },
  {
    "UID": 48211,
    "Country": "United States of America",
    "Longitude": -119.792113,
    "Latlongid": 15553,
    "Name1": "Fresno",
    "Latitude": 36.781549,
    "ES00POP": 427652,
    "Urborrur": "U"
  },
  {
    "UID": 44528,
    "Country": "United States of America",
    "Longitude": -119.694723,
    "Latlongid": 8581,
    "Name1": "Clovis",
    "Latitude": 36.819432,
    "ES00POP": 68468,
    "Urborrur": "U"
  },
  {
    "UID": 60450,
    "Country": "United States of America",
    "Longitude": -122.026252,
    "Latlongid": 38592,
    "Name1": "Santa Cruz",
    "Latitude": 36.97205,
    "ES00POP": 54593,
    "Urborrur": "U"
  },
  {
    "UID": 50086,
    "Country": "United States of America",
    "Longitude": -115.025286,
    "Latlongid": 19120,
    "Name1": "Henderson",
    "Latitude": 36.029249,
    "ES00POP": 175381,
    "Urborrur": "U"
  },
  {
    "UID": 57647,
    "Country": "United States of America",
    "Longitude": -115.124654,
    "Latlongid": 33384,
    "Name1": "Paradise",
    "Latitude": 36.082073,
    "ES00POP": 186070,
    "Urborrur": "U"
  },
  {
    "UID": 61794,
    "Country": "United States of America",
    "Longitude": -115.250198,
    "Latlongid": 41131,
    "Name1": "Spring Valley",
    "Latitude": 36.11252,
    "ES00POP": 117390,
    "Urborrur": "U"
  },
  {
    "UID": 62458,
    "Country": "United States of America",
    "Longitude": -115.059707,
    "Latlongid": 42382,
    "Name1": "Sunrise Manor",
    "Latitude": 36.175445,
    "ES00POP": 156120,
    "Urborrur": "U"
  },
  {
    "UID": 52546,
    "Country": "United States of America",
    "Longitude": -115.22206,
    "Latlongid": 23712,
    "Name1": "Las Vegas",
    "Latitude": 36.194168,
    "ES00POP": 478434,
    "Urborrur": "U"
  },
  {
    "UID": 56593,
    "Country": "United States of America",
    "Longitude": -115.146593,
    "Latlongid": 31395,
    "Name1": "North Las Vega",
    "Latitude": 36.228511,
    "ES00POP": 115488,
    "Urborrur": "U"
  },
  {
    "UID": 63909,
    "Country": "United States of America",
    "Longitude": -119.307347,
    "Latlongid": 45081,
    "Name1": "Visalia",
    "Latitude": 36.3241,
    "ES00POP": 91565,
    "Urborrur": "U"
  },
  {
    "UID": 41151,
    "Country": "United States of America",
    "Longitude": -119.031661,
    "Latlongid": 2208,
    "Name1": "Bakersfield",
    "Latitude": 35.357276,
    "ES00POP": 247057,
    "Urborrur": "U"
  },
  {
    "UID": 60440,
    "Country": "United States of America",
    "Longitude": -119.714189,
    "Latlongid": 38575,
    "Name1": "Santa Barbara",
    "Latitude": 34.425804,
    "ES00POP": 92325,
    "Urborrur": "U"
  },
  {
    "UID": 48867,
    "Country": "United States of America",
    "Longitude": -119.813608,
    "Latlongid": 16813,
    "Name1": "Goleta",
    "Latitude": 34.440493,
    "ES00POP": 55204,
    "Urborrur": "U"
  },
  {
    "UID": 60456,
    "Country": "United States of America",
    "Longitude": -120.433373,
    "Latlongid": 38603,
    "Name1": "Santa Maria",
    "Latitude": 34.951377,
    "ES00POP": 77423,
    "Urborrur": "U"
  },
  {
    "UID": 47677,
    "Country": "United States of America",
    "Longitude": -111.630991,
    "Latlongid": 14542,
    "Name1": "Flagstaff",
    "Latitude": 35.19916,
    "ES00POP": 52894,
    "Urborrur": "U"
  },
  {
    "UID": 61167,
    "Country": "United States of America",
    "Longitude": -118.739428,
    "Latlongid": 39952,
    "Name1": "Simi Valley",
    "Latitude": 34.271078,
    "ES00POP": 111351,
    "Urborrur": "U"
  },
  {
    "UID": 60325,
    "Country": "United States of America",
    "Longitude": -119.228048,
    "Latlongid": 38365,
    "Name1": "San Buenaventu",
    "Latitude": 34.275242,
    "ES00POP": 100916,
    "Urborrur": "U"
  },
  {
    "UID": 50166,
    "Country": "United States of America",
    "Longitude": -117.306189,
    "Latlongid": 19269,
    "Name1": "Hesperia",
    "Latitude": 34.412903,
    "ES00POP": 62582,
    "Urborrur": "U"
  },
  {
    "UID": 60447,
    "Country": "United States of America",
    "Longitude": -118.506443,
    "Latlongid": 38586,
    "Name1": "Santa Clarita",
    "Latitude": 34.416561,
    "ES00POP": 151088,
    "Urborrur": "U"
  },
  {
    "UID": 40637,
    "Country": "United States of America",
    "Longitude": -117.21201,
    "Latlongid": 1234,
    "Name1": "Apple Valley",
    "Latitude": 34.511486,
    "ES00POP": 54239,
    "Urborrur": "U"
  },
  {
    "UID": 63810,
    "Country": "United States of America",
    "Longitude": -117.344525,
    "Latlongid": 44894,
    "Name1": "Victorville",
    "Latitude": 34.520459,
    "ES00POP": 64029,
    "Urborrur": "U"
  },
  {
    "UID": 57557,
    "Country": "United States of America",
    "Longitude": -118.100603,
    "Latlongid": 33213,
    "Name1": "Palmdale",
    "Latitude": 34.581005,
    "ES00POP": 116670,
    "Urborrur": "U"
  },
  {
    "UID": 52414,
    "Country": "United States of America",
    "Longitude": -118.154062,
    "Latlongid": 23474,
    "Name1": "Lancaster",
    "Latitude": 34.68698,
    "ES00POP": 118718,
    "Urborrur": "U"
  },
  {
    "UID": 47782,
    "Country": "United States of America",
    "Longitude": -117.458222,
    "Latlongid": 14744,
    "Name1": "Fontana",
    "Latitude": 34.097744,
    "ES00POP": 128929,
    "Urborrur": "U"
  },
  {
    "UID": 59396,
    "Country": "United States of America",
    "Longitude": -117.382403,
    "Latlongid": 36643,
    "Name1": "Rialto",
    "Latitude": 34.11136,
    "ES00POP": 91873,
    "Urborrur": "U"
  },
  {
    "UID": 63524,
    "Country": "United States of America",
    "Longitude": -117.658386,
    "Latlongid": 44361,
    "Name1": "Upland",
    "Latitude": 34.113259,
    "ES00POP": 68393,
    "Urborrur": "U"
  },
  {
    "UID": 59076,
    "Country": "United States of America",
    "Longitude": -117.579404,
    "Latlongid": 36045,
    "Name1": "Rancho Cucamon",
    "Latitude": 34.123345,
    "ES00POP": 127743,
    "Urborrur": "U"
  },
  {
    "UID": 60320,
    "Country": "United States of America",
    "Longitude": -117.29315,
    "Latlongid": 38355,
    "Name1": "San Bernardino",
    "Latitude": 34.12951,
    "ES00POP": 185401,
    "Urborrur": "U"
  },
  {
    "UID": 40667,
    "Country": "United States of America",
    "Longitude": -118.036491,
    "Latlongid": 1290,
    "Name1": "Arcadia",
    "Latitude": 34.132688,
    "ES00POP": 53054,
    "Urborrur": "U"
  },
  {
    "UID": 57764,
    "Country": "United States of America",
    "Longitude": -118.131808,
    "Latlongid": 33596,
    "Name1": "Pasadena",
    "Latitude": 34.156098,
    "ES00POP": 133936,
    "Urborrur": "U"
  },
  {
    "UID": 48725,
    "Country": "United States of America",
    "Longitude": -118.250081,
    "Latlongid": 16540,
    "Name1": "Glendale",
    "Latitude": 34.170939,
    "ES00POP": 194973,
    "Urborrur": "U"
  },
  {
    "UID": 42973,
    "Country": "United States of America",
    "Longitude": -118.328341,
    "Latlongid": 5663,
    "Name1": "Burbank",
    "Latitude": 34.18017,
    "ES00POP": 100316,
    "Urborrur": "U"
  },
  {
    "UID": 62927,
    "Country": "United States of America",
    "Longitude": -118.875053,
    "Latlongid": 43248,
    "Name1": "Thousand Oaks",
    "Latitude": 34.189489,
    "ES00POP": 117005,
    "Urborrur": "U"
  },
  {
    "UID": 57469,
    "Country": "United States of America",
    "Longitude": -119.182497,
    "Latlongid": 33052,
    "Name1": "Oxnard",
    "Latitude": 34.191292,
    "ES00POP": 170358,
    "Urborrur": "U"
  },
  {
    "UID": 43241,
    "Country": "United States of America",
    "Longitude": -119.032207,
    "Latlongid": 6173,
    "Name1": "Camarillo",
    "Latitude": 34.225607,
    "ES00POP": 57077,
    "Urborrur": "U"
  },
  {
    "UID": 54494,
    "Country": "United States of America",
    "Longitude": -122.861874,
    "Latlongid": 27402,
    "Name1": "Medford",
    "Latitude": 42.331998,
    "ES00POP": 63154,
    "Urborrur": "U"
  },
  {
    "UID": 60292,
    "Country": "United States of America",
    "Longitude": -111.892622,
    "Latlongid": 38306,
    "Name1": "Salt Lake",
    "Latitude": 40.7547,
    "ES00POP": 181743,
    "Urborrur": "U"
  },
  {
    "UID": 52659,
    "Country": "United States of America",
    "Longitude": -111.955328,
    "Latlongid": 23930,
    "Name1": "Layton",
    "Latitude": 41.077919,
    "ES00POP": 58474,
    "Urborrur": "U"
  },
  {
    "UID": 57025,
    "Country": "United States of America",
    "Longitude": -111.961193,
    "Latlongid": 32218,
    "Name1": "Ogden",
    "Latitude": 41.227744,
    "ES00POP": 77226,
    "Urborrur": "U"
  },
  {
    "UID": 57282,
    "Country": "United States of America",
    "Longitude": -111.696486,
    "Latlongid": 32689,
    "Name1": "Orem",
    "Latitude": 40.298753,
    "ES00POP": 84324,
    "Urborrur": "U"
  },
  {
    "UID": 60365,
    "Country": "United States of America",
    "Longitude": -111.85961,
    "Latlongid": 38454,
    "Name1": "Sandy",
    "Latitude": 40.572415,
    "ES00POP": 88418,
    "Urborrur": "U"
  },
  {
    "UID": 64672,
    "Country": "United States of America",
    "Longitude": -111.976217,
    "Latlongid": 46526,
    "Name1": "West Jordan",
    "Latitude": 40.606385,
    "ES00POP": 68336,
    "Urborrur": "U"
  },
  {
    "UID": 62737,
    "Country": "United States of America",
    "Longitude": -111.949454,
    "Latlongid": 42880,
    "Name1": "Taylorsville",
    "Latitude": 40.65493,
    "ES00POP": 61149,
    "Urborrur": "U"
  },
  {
    "UID": 62736,
    "Country": "United States of America",
    "Longitude": -111.949454,
    "Latlongid": 42892,
    "Name1": "Taylorsville",
    "Latitude": 40.65493,
    "ES00POP": 57439,
    "Urborrur": "U"
  },
  {
    "UID": 64845,
    "Country": "United States of America",
    "Longitude": -111.993867,
    "Latlongid": 46850,
    "Name1": "West Valley",
    "Latitude": 40.689181,
    "ES00POP": 108896,
    "Urborrur": "U"
  },
  {
    "UID": 59219,
    "Country": "United States of America",
    "Longitude": -122.370325,
    "Latlongid": 36315,
    "Name1": "Redding",
    "Latitude": 40.576606,
    "ES00POP": 80865,
    "Urborrur": "U"
  },
  {
    "UID": 58893,
    "Country": "United States of America",
    "Longitude": -111.660804,
    "Latlongid": 35717,
    "Name1": "Provo",
    "Latitude": 40.244421,
    "ES00POP": 105166,
    "Urborrur": "U"
  },
  {
    "UID": 43541,
    "Country": "United States of America",
    "Longitude": -119.753877,
    "Latlongid": 6736,
    "Name1": "Carson",
    "Latitude": 39.160949,
    "ES00POP": 52457,
    "Urborrur": "U"
  },
  {
    "UID": 59334,
    "Country": "United States of America",
    "Longitude": -119.821812,
    "Latlongid": 36527,
    "Name1": "Reno",
    "Latitude": 39.52711,
    "ES00POP": 180480,
    "Urborrur": "U"
  },
  {
    "UID": 61634,
    "Country": "United States of America",
    "Longitude": -119.735643,
    "Latlongid": 40827,
    "Name1": "Sparks",
    "Latitude": 39.554543,
    "ES00POP": 66346,
    "Urborrur": "U"
  },
  {
    "UID": 44118,
    "Country": "United States of America",
    "Longitude": -121.83546,
    "Latlongid": 7813,
    "Name1": "Chico",
    "Latitude": 39.739983,
    "ES00POP": 59954,
    "Urborrur": "U"
  },
  {
    "UID": 37600,
    "Country": "Canada",
    "Longitude": -113.574982,
    "Latlongid": 229,
    "Name1": "Edmonton",
    "Latitude": 53.547302,
    "ES00POP": 771514,
    "Urborrur": "U"
  },
  {
    "UID": 37729,
    "Country": "Canada",
    "Longitude": -120.347137,
    "Latlongid": 360,
    "Name1": "Kamloops",
    "Latitude": 50.671043,
    "ES00POP": 67032,
    "Urborrur": "U"
  },
  {
    "UID": 37974,
    "Country": "Canada",
    "Longitude": -122.793442,
    "Latlongid": 610,
    "Name1": "Prince George",
    "Latitude": 53.931141,
    "ES00POP": 65342,
    "Urborrur": "U"
  },
  {
    "UID": 37796,
    "Country": "Canada",
    "Longitude": -112.809464,
    "Latlongid": 427,
    "Name1": "Lethbridge",
    "Latitude": 49.714527,
    "ES00POP": 66462,
    "Urborrur": "U"
  },
  {
    "UID": 37735,
    "Country": "Canada",
    "Longitude": -119.43261,
    "Latlongid": 366,
    "Name1": "Kelowna",
    "Latitude": 49.930168,
    "ES00POP": 106864,
    "Urborrur": "U"
  },
  {
    "UID": 37844,
    "Country": "Canada",
    "Longitude": -110.67688,
    "Latlongid": 476,
    "Name1": "Medicine Hat",
    "Latitude": 50.084652,
    "ES00POP": 54970,
    "Urborrur": "U"
  },
  {
    "UID": 37484,
    "Country": "Canada",
    "Longitude": -114.062103,
    "Latlongid": 106,
    "Name1": "Calgary",
    "Latitude": 51.073833,
    "ES00POP": 867374,
    "Urborrur": "U"
  },
  {
    "UID": 37984,
    "Country": "Canada",
    "Longitude": -113.844177,
    "Latlongid": 620,
    "Name1": "Red Deer",
    "Latitude": 52.296955,
    "ES00POP": 66790,
    "Urborrur": "U"
  },
  {
    "UID": 38213,
    "Country": "Canada",
    "Longitude": -123.41774,
    "Latlongid": 854,
    "Name1": "Victoria",
    "Latitude": 48.460011,
    "ES00POP": 284443,
    "Urborrur": "U"
  },
  {
    "UID": 41659,
    "Country": "United States of America",
    "Longitude": -122.474975,
    "Latlongid": 3165,
    "Name1": "Bellingham",
    "Latitude": 48.750178,
    "ES00POP": 67171,
    "Urborrur": "U"
  },
  {
    "UID": 38250,
    "Country": "Canada",
    "Longitude": -122.8,
    "Latlongid": 891,
    "Name1": "White Rock",
    "Latitude": 49.0166667,
    "ES00POP": 65261,
    "Urborrur": "U"
  },
  {
    "UID": 37383,
    "Country": "Canada",
    "Longitude": -122.3304596,
    "Latlongid": 1,
    "Name1": "Abbotsford",
    "Latitude": 49.0491829,
    "ES00POP": 127722,
    "Urborrur": "U"
  },
  {
    "UID": 37531,
    "Country": "Canada",
    "Longitude": -121.954437,
    "Latlongid": 156,
    "Name1": "Chilliwack",
    "Latitude": 49.174271,
    "ES00POP": 51013,
    "Urborrur": "U"
  },
  {
    "UID": 37882,
    "Country": "Canada",
    "Longitude": -124.007248,
    "Latlongid": 515,
    "Name1": "Nanaimo",
    "Latitude": 49.204704,
    "ES00POP": 76791,
    "Urborrur": "U"
  },
  {
    "UID": 38206,
    "Country": "Canada",
    "Longitude": -123.149963,
    "Latlongid": 847,
    "Name1": "Vancouver",
    "Latitude": 49.267612,
    "ES00POP": 1805083,
    "Urborrur": "U"
  },
  {
    "UID": 47252,
    "Country": "United States of America",
    "Longitude": -122.200527,
    "Latlongid": 13745,
    "Name1": "Everett",
    "Latitude": 47.963434,
    "ES00POP": 91488,
    "Urborrur": "U"
  },
  {
    "UID": 41649,
    "Country": "United States of America",
    "Longitude": -122.159245,
    "Latlongid": 3142,
    "Name1": "Bellevue",
    "Latitude": 47.597554,
    "ES00POP": 109569,
    "Urborrur": "U"
  },
  {
    "UID": 60700,
    "Country": "United States of America",
    "Longitude": -122.333144,
    "Latlongid": 39069,
    "Name1": "Seattle",
    "Latitude": 47.626353,
    "ES00POP": 563374,
    "Urborrur": "U"
  },
  {
    "UID": 61059,
    "Country": "United States of America",
    "Longitude": -122.339657,
    "Latlongid": 39750,
    "Name1": "Shoreline",
    "Latitude": 47.756519,
    "ES00POP": 53025,
    "Urborrur": "U"
  },
  {
    "UID": 49161,
    "Country": "United States of America",
    "Longitude": -111.286299,
    "Latlongid": 17364,
    "Name1": "Great Falls",
    "Latitude": 47.503657,
    "ES00POP": 56690,
    "Urborrur": "U"
  },
  {
    "UID": 61694,
    "Country": "United States of America",
    "Longitude": -117.410271,
    "Latlongid": 40943,
    "Name1": "Spokane",
    "Latitude": 47.673341,
    "ES00POP": 195629,
    "Urborrur": "U"
  },
  {
    "UID": 62608,
    "Country": "United States of America",
    "Longitude": -122.459389,
    "Latlongid": 42661,
    "Name1": "Tacoma",
    "Latitude": 47.241371,
    "ES00POP": 193556,
    "Urborrur": "U"
  },
  {
    "UID": 47555,
    "Country": "United States of America",
    "Longitude": -122.339173,
    "Latlongid": 14316,
    "Name1": "Federal Way",
    "Latitude": 47.31296,
    "ES00POP": 83259,
    "Urborrur": "U"
  },
  {
    "UID": 51676,
    "Country": "United States of America",
    "Longitude": -122.227021,
    "Latlongid": 22130,
    "Name1": "Kent",
    "Latitude": 47.382689,
    "ES00POP": 79524,
    "Urborrur": "U"
  },
  {
    "UID": 59344,
    "Country": "United States of America",
    "Longitude": -122.195163,
    "Latlongid": 36544,
    "Name1": "Renton",
    "Latitude": 47.486622,
    "ES00POP": 50052,
    "Urborrur": "U"
  },
  {
    "UID": 52365,
    "Country": "United States of America",
    "Longitude": -122.526008,
    "Latlongid": 23387,
    "Name1": "Lakewood",
    "Latitude": 47.16392,
    "ES00POP": 58211,
    "Urborrur": "U"
  },
  {
    "UID": 55081,
    "Country": "United States of America",
    "Longitude": -114.011593,
    "Latlongid": 28525,
    "Name1": "Missoula",
    "Latitude": 46.862633,
    "ES00POP": 57053,
    "Urborrur": "U"
  },
  {
    "UID": 65681,
    "Country": "United States of America",
    "Longitude": -120.529657,
    "Latlongid": 48426,
    "Name1": "Yakima",
    "Latitude": 46.596728,
    "ES00POP": 71845,
    "Urborrur": "U"
  },
  {
    "UID": 41966,
    "Country": "United States of America",
    "Longitude": -108.537139,
    "Latlongid": 3756,
    "Name1": "Billings",
    "Latitude": 45.786553,
    "ES00POP": 89847,
    "Urborrur": "U"
  },
  {
    "UID": 51657,
    "Country": "United States of America",
    "Longitude": -119.15927,
    "Latlongid": 22076,
    "Name1": "Kennewick",
    "Latitude": 46.203475,
    "ES00POP": 54693,
    "Urborrur": "U"
  },
  {
    "UID": 63662,
    "Country": "United States of America",
    "Longitude": -122.603011,
    "Latlongid": 44617,
    "Name1": "Vancouver",
    "Latitude": 45.633743,
    "ES00POP": 143560,
    "Urborrur": "U"
  },
  {
    "UID": 41512,
    "Country": "United States of America",
    "Longitude": -122.809954,
    "Latlongid": 2884,
    "Name1": "Beaverton",
    "Latitude": 45.479686,
    "ES00POP": 76129,
    "Urborrur": "U"
  },
  {
    "UID": 49333,
    "Country": "United States of America",
    "Longitude": -122.439425,
    "Latlongid": 17679,
    "Name1": "Gresham",
    "Latitude": 45.503692,
    "ES00POP": 90205,
    "Urborrur": "U"
  },
  {
    "UID": 58644,
    "Country": "United States of America",
    "Longitude": -122.640155,
    "Latlongid": 35244,
    "Name1": "Portland",
    "Latitude": 45.52304,
    "ES00POP": 529121,
    "Urborrur": "U"
  },
  {
    "UID": 50320,
    "Country": "United States of America",
    "Longitude": -122.942865,
    "Latlongid": 19553,
    "Name1": "Hillsboro",
    "Latitude": 45.523776,
    "ES00POP": 70186,
    "Urborrur": "U"
  },
  {
    "UID": 60251,
    "Country": "United States of America",
    "Longitude": -123.029159,
    "Latlongid": 38229,
    "Name1": "Salem",
    "Latitude": 44.931109,
    "ES00POP": 136924,
    "Urborrur": "U"
  },
  {
    "UID": 61744,
    "Country": "United States of America",
    "Longitude": -122.991052,
    "Latlongid": 41031,
    "Name1": "Springfield",
    "Latitude": 44.053064,
    "ES00POP": 52864,
    "Urborrur": "U"
  },
  {
    "UID": 41722,
    "Country": "United States of America",
    "Longitude": -121.308085,
    "Latlongid": 3296,
    "Name1": "Bend",
    "Latitude": 44.056434,
    "ES00POP": 52029,
    "Urborrur": "U"
  },
  {
    "UID": 47199,
    "Country": "United States of America",
    "Longitude": -123.110345,
    "Latlongid": 13641,
    "Name1": "Eugene",
    "Latitude": 44.057663,
    "ES00POP": 137893,
    "Urborrur": "U"
  },
  {
    "UID": 50895,
    "Country": "United States of America",
    "Longitude": -112.032509,
    "Latlongid": 20646,
    "Name1": "Idaho Falls",
    "Latitude": 43.491775,
    "ES00POP": 50730,
    "Urborrur": "U"
  },
  {
    "UID": 55781,
    "Country": "United States of America",
    "Longitude": -116.563559,
    "Latlongid": 29859,
    "Name1": "Nampa",
    "Latitude": 43.574807,
    "ES00POP": 51867,
    "Urborrur": "U"
  },
  {
    "UID": 42251,
    "Country": "United States of America",
    "Longitude": -116.237651,
    "Latlongid": 4296,
    "Name1": "Boise",
    "Latitude": 43.613739,
    "ES00POP": 185787,
    "Urborrur": "U"
  },
  {
    "UID": 58479,
    "Country": "United States of America",
    "Longitude": -112.447267,
    "Latlongid": 34931,
    "Name1": "Pocatello",
    "Latitude": 42.875214,
    "ES00POP": 51466,
    "Urborrur": "U"
  },
  {
    "UID": 65063,
    "Country": "United States of America",
    "Longitude": -118.024495,
    "Latlongid": 47264,
    "Name1": "Whittier",
    "Latitude": 33.965662,
    "ES00POP": 83680,
    "Urborrur": "U"
  },
  {
    "UID": 47736,
    "Country": "United States of America",
    "Longitude": -118.243881,
    "Latlongid": 14635,
    "Name1": "Florence-Graha",
    "Latitude": 33.969364,
    "ES00POP": 60197,
    "Urborrur": "U"
  },
  {
    "UID": 44155,
    "Country": "United States of America",
    "Longitude": -117.723054,
    "Latlongid": 7881,
    "Name1": "Chino Hills",
    "Latitude": 33.975267,
    "ES00POP": 66787,
    "Urborrur": "U"
  },
  {
    "UID": 50812,
    "Country": "United States of America",
    "Longitude": -118.217381,
    "Latlongid": 20483,
    "Name1": "Huntington Par",
    "Latitude": 33.982364,
    "ES00POP": 61348,
    "Urborrur": "U"
  },
  {
    "UID": 58113,
    "Country": "United States of America",
    "Longitude": -118.089121,
    "Latlongid": 34259,
    "Name1": "Pico Rivera",
    "Latitude": 33.989013,
    "ES00POP": 63428,
    "Urborrur": "U"
  },
  {
    "UID": 49469,
    "Country": "United States of America",
    "Longitude": -117.969434,
    "Latlongid": 17940,
    "Name1": "Hacienda Heigh",
    "Latitude": 34.000578,
    "ES00POP": 53122,
    "Urborrur": "U"
  },
  {
    "UID": 45901,
    "Country": "United States of America",
    "Longitude": -117.820761,
    "Latlongid": 11201,
    "Name1": "Diamond Bar",
    "Latitude": 34.001652,
    "ES00POP": 56287,
    "Urborrur": "U"
  },
  {
    "UID": 55206,
    "Country": "United States of America",
    "Longitude": -118.114501,
    "Latlongid": 28760,
    "Name1": "Montebello",
    "Latitude": 34.014412,
    "ES00POP": 62150,
    "Urborrur": "U"
  },
  {
    "UID": 44154,
    "Country": "United States of America",
    "Longitude": -117.68999,
    "Latlongid": 7879,
    "Name1": "Chino",
    "Latitude": 34.017765,
    "ES00POP": 67168,
    "Urborrur": "U"
  },
  {
    "UID": 60458,
    "Country": "United States of America",
    "Longitude": -118.481336,
    "Latlongid": 38606,
    "Name1": "Santa Monica",
    "Latitude": 34.022059,
    "ES00POP": 84084,
    "Urborrur": "U"
  },
  {
    "UID": 46461,
    "Country": "United States of America",
    "Longitude": -118.168653,
    "Latlongid": 12254,
    "Name1": "East Los Angel",
    "Latitude": 34.031462,
    "ES00POP": 124283,
    "Urborrur": "U"
  },
  {
    "UID": 55216,
    "Country": "United States of America",
    "Longitude": -118.135561,
    "Latlongid": 28775,
    "Name1": "Monterey Park",
    "Latitude": 34.049199,
    "ES00POP": 60051,
    "Urborrur": "U"
  },
  {
    "UID": 57196,
    "Country": "United States of America",
    "Longitude": -117.627861,
    "Latlongid": 32532,
    "Name1": "Ontario",
    "Latitude": 34.052811,
    "ES00POP": 158007,
    "Urborrur": "U"
  },
  {
    "UID": 59242,
    "Country": "United States of America",
    "Longitude": -117.171449,
    "Latlongid": 36357,
    "Name1": "Redlands",
    "Latitude": 34.056563,
    "ES00POP": 63591,
    "Urborrur": "U"
  },
  {
    "UID": 64599,
    "Country": "United States of America",
    "Longitude": -117.918617,
    "Latlongid": 46387,
    "Name1": "West Covina",
    "Latitude": 34.05666,
    "ES00POP": 105080,
    "Urborrur": "U"
  },
  {
    "UID": 58531,
    "Country": "United States of America",
    "Longitude": -117.755886,
    "Latlongid": 35028,
    "Name1": "Pomona",
    "Latitude": 34.06076,
    "ES00POP": 149473,
    "Urborrur": "U"
  },
  {
    "UID": 59960,
    "Country": "United States of America",
    "Longitude": -118.082312,
    "Latlongid": 37675,
    "Name1": "Rosemead",
    "Latitude": 34.070428,
    "ES00POP": 53505,
    "Urborrur": "U"
  },
  {
    "UID": 46936,
    "Country": "United States of America",
    "Longitude": -118.027491,
    "Latlongid": 13139,
    "Name1": "El Monte",
    "Latitude": 34.073276,
    "ES00POP": 115965,
    "Urborrur": "U"
  },
  {
    "UID": 40268,
    "Country": "United States of America",
    "Longitude": -118.135052,
    "Latlongid": 539,
    "Name1": "Alhambra",
    "Latitude": 34.081859,
    "ES00POP": 85804,
    "Urborrur": "U"
  },
  {
    "UID": 41170,
    "Country": "United States of America",
    "Longitude": -117.971677,
    "Latlongid": 2242,
    "Name1": "Baldwin Park",
    "Latitude": 34.082809,
    "ES00POP": 75837,
    "Urborrur": "U"
  },
  {
    "UID": 53382,
    "Country": "United States of America",
    "Longitude": -118.375984,
    "Latlongid": 25286,
    "Name1": "Los Angeles",
    "Latitude": 34.086159,
    "ES00POP": 3694820,
    "Urborrur": "U"
  },